Time,Phase,Altitude,Horizontal speed,Vertical speed,Retro to Zenith,Surface distance,Pad distance,Pad bearing,Pitch ang,Yaw ang,Roll ang,Throttle,
2251917521.26305,Coast,58,360,-797,24.35,18.73,60.63,0.12,139.32,-165.39,-130.53,0,7.35,
2251917521.34305,Coast,58,360,-797,24.33,18.7,60.56,0.12,139.08,-166.19,-131.62,0,7.35,
2251917521.42305,Coast,58,360,-798,24.31,18.67,60.49,0.12,138.84,-167,-132.44,0,7.35,
2251917521.50305,Coast,58,360,-799,24.29,18.65,60.42,0.12,138.62,-167.83,-133.54,0,7.35,
2251917521.58305,Coast,57,360,-800,24.27,18.62,60.35,0.12,138.41,-168.67,-134.63,0,7.35,
2251917521.66305,Coast,57,360,-800,24.25,18.6,60.28,0.13,138.2,-169.53,-135.73,0,7.35,
2251917521.74305,Coast,57,360,-801,24.23,18.57,60.23,0.13,138,-170.4,-136.83,0,7.35,
2251917521.82305,Coast,57,360,-802,24.21,18.54,60.16,0.13,137.82,-171.29,-137.93,0,7.35,
2251917521.90305,Coast,57,360,-803,24.19,18.51,60.09,0.13,137.68,-172.19,-139.04,0,7.35,
2251917521.98305,Coast,57,360,-803,24.17,18.48,60.02,0.13,137.51,-173.11,-140.14,0,7.35,
2251917522.06305,Coast,57,360,-804,24.15,18.45,59.95,0.13,137.35,-173.81,-141.25,0,7.35,
2251917522.12305,Coast,57,360,-805,24.12,18.42,59.88,0.13,137.19,-174.75,-142.36,0,7.35,
2251917522.20305,Coast,57,360,-806,24.1,18.4,59.81,0.13,137.05,-175.71,-143.48,0,7.35,
2251917522.28305,Coast,57,360,-806,24.08,18.37,59.74,0.13,136.91,-176.69,-144.32,0,7.35,
2251917522.36305,Coast,57,360,-807,24.07,18.34,59.67,0.13,136.78,-177.67,-145.44,0,7.35,
2251917522.44305,Coast,57,360,-808,24.05,18.32,59.6,0.13,136.67,-178.67,-146.57,0,7.35,
2251917522.52305,Coast,57,360,-809,24.03,18.29,59.54,0.14,136.56,-179.68,-147.7,0,7.35,
2251917522.60305,Coast,57,360,-809,24.01,18.26,59.47,0.14,136.46,179.3,-148.83,0,7.35,
2251917522.68305,Coast,57,360,-810,23.98,18.23,59.4,0.14,136.39,178.27,-149.97,0,7.35,
2251917522.76305,Coast,56,360,-811,23.96,18.2,59.33,0.14,136.31,177.23,-151.11,0,7.35,
2251917522.84305,Coast,56,360,-812,23.94,18.17,59.26,0.14,136.24,176.44,-152.26,0,7.35,
2251917522.90305,Coast,56,360,-812,23.92,18.15,59.19,0.14,136.18,175.39,-153.41,0,7.35,
2251917522.98305,Coast,56,360,-813,23.9,18.12,59.12,0.14,136.13,174.32,-154.27,0,7.35,
2251917523.06305,Coast,56,360,-814,23.88,18.09,59.05,0.14,136.09,173.26,-155.43,0,7.35,
2251917523.14305,Coast,56,360,-814,23.87,18.07,58.98,0.14,136.06,172.18,-156.59,0,7.35,
2251917523.22305,Coast,56,360,-815,23.85,18.04,58.91,0.14,136.04,171.11,-157.76,0,7.35,
2251917523.30305,Coast,56,360,-816,23.83,18.01,58.86,0.14,136.04,170.03,-158.93,0,7.35,
2251917523.38305,Coast,56,360,-817,23.81,17.98,58.78,0.14,136.04,168.95,-160.11,0,7.35,
2251917523.46305,Coast,56,360,-818,23.79,17.95,58.71,0.15,136.05,167.87,-161.29,0,7.35,
2251917523.54305,Coast,56,360,-818,23.77,17.92,58.64,0.15,136.08,166.78,-162.48,0,7.35,
2251917523.60305,Coast,56,360,-819,23.75,17.9,58.57,0.15,136.11,165.98,-163.67,0,7.35,
2251917523.68305,Coast,56,360,-820,23.73,17.87,58.5,0.15,136.16,164.91,-164.86,0,7.35,
2251917523.76305,Coast,56,360,-820,23.7,17.84,58.43,0.15,136.22,163.84,-165.76,0,7.35,
2251917523.84305,Coast,56,360,-821,23.69,17.82,58.36,0.15,136.3,162.77,-166.97,0,7.35,
2251917523.92305,Coast,56,360,-822,23.67,17.79,58.29,0.15,136.39,161.72,-168.18,0,7.35,
2251917524.00305,Coast,55,360,-823,23.65,17.76,58.23,0.15,136.49,160.67,-169.39,0,7.35,
2251917524.08305,Coast,55,360,-823,23.63,17.73,58.16,0.15,136.6,159.62,-170.61,0,7.35,
2251917524.16305,Coast,55,360,-824,23.61,17.7,58.09,0.16,136.7,158.59,-171.83,0,7.35,
2251917524.24305,Coast,55,360,-825,23.59,17.67,58.02,0.16,136.83,157.57,-173.06,0,7.35,
2251917524.30305,Coast,55,360,-826,23.57,17.65,57.95,0.16,136.99,156.81,-174.3,0,7.35,
2251917524.38305,Coast,55,360,-826,23.55,17.62,57.87,0.16,137.16,155.81,-175.54,0,7.35,
2251917524.46305,Coast,55,360,-827,23.53,17.59,57.8,0.16,137.34,154.82,-176.47,0,7.35,
2251917524.54305,Coast,55,360,-828,23.51,17.56,57.73,0.16,137.54,153.85,-177.72,0,7.35,
2251917524.62305,Coast,55,360,-829,23.49,17.54,57.66,0.16,137.76,152.89,-178.97,0,7.35,
2251917524.70305,Coast,55,360,-829,23.47,17.51,57.6,0.16,137.99,151.94,179.77,0,7.35,
2251917524.78305,Coast,55,360,-830,23.45,17.48,57.53,0.16,138.25,151.02,178.51,0,7.35,
2251917524.86305,Coast,55,360,-831,23.44,17.45,57.46,0.17,138.45,150.1,177.24,0,7.35,
2251917524.94305,Coast,55,360,-832,23.42,17.42,57.39,0.17,138.73,149.21,175.96,0,7.35,
2251917525.02305,Coast,55,360,-832,23.4,17.4,57.32,0.17,139.04,148.55,174.68,0,7.35,
2251917525.08305,Coast,55,360,-833,23.38,17.37,57.24,0.17,139.36,147.68,173.4,0,7.35,
2251917525.16305,Coast,55,360,-834,23.36,17.34,57.17,0.17,139.7,146.83,172.43,0,7.35,
2251917525.24305,Coast,54,360,-834,23.34,17.31,57.1,0.17,140.07,146,171.13,0,7.35,
2251917525.32305,Coast,54,360,-835,23.32,17.29,57.03,0.17,140.46,145.19,169.83,0,7.35,
2251917525.40305,Coast,54,360,-836,23.3,17.26,56.95,0.18,140.87,144.39,168.53,0,7.35,
2251917525.48305,Coast,54,360,-837,23.28,17.23,56.9,0.18,141.3,143.62,167.22,0,7.35,
2251917525.56305,Coast,54,360,-837,23.26,17.2,56.83,0.18,141.77,142.86,165.9,0,7.35,
2251917525.64305,Coast,54,360,-838,23.24,17.17,56.76,0.18,142.12,142.12,164.58,0,7.35,
2251917525.72305,Coast,54,360,-839,23.22,17.15,56.68,0.18,142.63,141.4,163.25,0,7.35,
2251917525.78305,Coast,54,360,-840,23.2,17.12,56.61,0.18,143.16,140.88,161.92,0,7.35,
2251917525.86305,Coast,54,360,-841,23.19,17.09,56.54,0.18,143.72,140.19,160.58,0,7.35,
2251917525.94305,Coast,54,360,-841,23.17,17.06,56.46,0.19,144.31,139.53,159.57,0,7.35,
2251917526.02305,Coast,54,360,-842,23.15,17.04,56.39,0.19,144.94,138.88,158.23,0,7.35,
2251917526.10305,Coast,54,360,-843,23.13,17.01,56.32,0.19,145.59,138.25,156.87,0,7.35,
2251917526.18305,Coast,54,360,-843,23.11,16.98,56.26,0.19,146.28,137.64,155.52,0,7.35,
2251917526.26305,Coast,54,360,-844,23.09,16.95,56.19,0.19,147,137.05,154.15,0,7.35,
2251917526.34305,Coast,54,360,-845,23.07,16.93,56.12,0.19,147.57,136.48,152.78,0,7.35,
2251917526.42305,Coast,53,360,-846,23.06,16.9,56.04,0.2,148.35,135.92,151.41,0,7.35,
2251917526.48305,Coast,53,360,-846,23.04,16.87,55.97,0.2,149.17,135.52,150.03,0,7.35,
2251917526.56305,Coast,53,360,-847,23.02,16.84,55.9,0.2,150.04,135,148.64,0,7.35,
2251917526.64304,Coast,53,360,-848,23,16.81,55.82,0.2,150.94,134.49,147.6,0,7.35,
2251917526.72304,Coast,53,360,-848,22.98,16.78,55.75,0.2,151.89,134.01,146.21,0,7.35,
2251917526.80304,Coast,53,360,-849,22.96,16.76,55.68,0.2,152.88,133.54,144.81,0,7.35,
2251917526.88304,Coast,53,360,-850,22.95,16.73,55.62,0.21,153.91,133.09,143.4,0,7.35,
2251917526.96304,Coast,53,360,-851,22.93,16.7,55.55,0.21,154.99,132.65,141.99,0,7.35,
2251917527.04304,Coast,53,360,-851,22.91,16.68,55.48,0.21,155.83,132.24,140.57,0,7.35,
2251917527.12304,Coast,53,360,-852,22.89,16.65,55.4,0.21,156.99,131.84,139.15,0,7.35,
2251917527.20304,Coast,53,360,-853,22.87,16.62,55.33,0.21,158.21,131.55,137.72,0,7.35,
2251917527.26304,Coast,53,360,-854,22.85,16.59,55.25,0.21,159.47,131.18,136.29,0,7.35,
2251917527.34304,Coast,53,360,-854,22.83,16.56,55.18,0.22,160.78,130.82,135.21,0,7.35,
2251917527.42304,Coast,53,360,-855,22.81,16.53,55.11,0.22,162.14,130.49,133.77,0,7.35,
2251917527.50304,Coast,53,360,-856,22.8,16.51,55.03,0.22,163.55,130.16,132.32,0,7.35,
2251917527.58304,Coast,52,360,-857,22.78,16.48,54.96,0.22,165.01,129.86,130.86,0,7.35,
2251917527.66304,Coast,52,360,-857,22.76,16.45,54.9,0.22,166.53,129.57,129.4,0,7.35,
2251917527.74304,Coast,52,360,-858,22.74,16.43,54.83,0.23,168.09,129.29,127.94,0,7.35,
2251917527.82304,Coast,52,359,-859,22.72,16.4,54.76,0.23,169.29,129.03,126.46,0,7.35,
2251917527.90304,Coast,52,359,-860,22.7,16.37,54.68,0.23,170.94,128.79,124.99,0,7.35,
2251917527.96304,Coast,52,359,-860,22.69,16.34,54.61,0.23,172.63,128.62,123.5,0,7.35,
2251917528.04304,Coast,52,359,-861,22.67,16.31,54.53,0.23,174.36,128.4,122.01,0,7.35,
2251917528.12304,Coast,52,359,-862,22.65,16.28,54.46,0.24,176.14,128.2,120.89,0,7.35,
2251917528.20304,Coast,52,359,-862,22.64,16.26,54.38,0.24,177.95,128.01,119.39,0,7.35,
2251917528.28304,Coast,52,359,-863,22.62,16.23,54.31,0.24,179.79,127.84,117.88,0,7.35,
2251917528.36304,Coast,52,359,-864,22.6,16.2,54.25,0.24,-178.33,127.69,116.36,0,7.35,
2251917528.44304,Coast,52,359,-865,22.58,16.18,54.18,0.25,-176.43,127.55,114.84,0,7.35,
2251917528.52304,Coast,52,359,-865,22.56,16.15,54.1,0.25,-174.99,127.42,113.31,0,7.35,
2251917528.60304,Coast,52,359,-866,22.54,16.12,54.03,0.25,-173.06,127.32,111.78,0,7.35,
2251917528.68304,Coast,52,359,-867,22.52,16.09,53.95,0.25,-171.12,127.23,110.24,0,7.35,
2251917528.74304,Coast,51,359,-868,22.51,16.06,53.88,0.25,-169.17,127.17,108.7,0,7.35,
2251917528.82304,Coast,51,359,-868,22.49,16.03,53.81,0.26,-167.22,127.11,107.14,0,7.35,
2251917528.90304,Coast,51,359,-869,22.47,16.01,53.73,0.26,-165.27,127.07,105.98,0,7.35,
2251917528.98304,Coast,51,359,-870,22.46,15.98,53.66,0.26,-163.34,127.04,104.41,0,7.35,
2251917529.06304,Coast,51,359,-870,22.44,15.96,53.58,0.26,-161.42,127.03,102.84,0,7.35,
2251917529.14304,Coast,51,359,-871,22.42,15.93,53.5,0.27,-159.53,127.04,101.27,0,7.35,
2251917529.22304,Coast,51,359,-872,22.4,15.9,53.45,0.27,-157.66,127.08,99.68,0,7.35,
2251917529.30304,Coast,51,359,-873,22.38,15.87,53.37,0.27,-155.81,127.13,98.09,0,7.35,
2251917529.38304,Coast,51,359,-873,22.36,15.84,53.3,0.27,-154.46,127.2,96.5,0,7.35,
2251917529.46304,Coast,51,359,-874,22.35,15.81,53.22,0.28,-152.69,127.29,94.9,0,7.35,
2251917529.52304,Coast,51,359,-875,22.33,15.78,53.15,0.28,-150.96,127.38,93.29,0,7.35,
2251917529.60304,Coast,51,359,-876,22.31,15.76,53.07,0.28,-149.27,127.52,91.67,0,7.35,
2251917529.68304,Coast,51,359,-876,22.29,15.73,53,0.28,-147.62,127.68,90.46,0,7.35,
2251917529.76304,Coast,51,359,-877,22.27,15.7,52.92,0.29,-146.03,127.86,88.83,0,7.35,
2251917529.84304,Coast,51,359,-878,22.26,15.68,52.85,0.29,-144.48,128.08,87.19,0,7.35,
2251917529.92304,Coast,50,359,-878,22.24,15.65,52.77,0.29,-142.98,128.32,85.55,0,7.35,
2251917530.00304,Coast,50,359,-879,22.22,15.62,52.71,0.3,-141.54,128.59,83.9,0,7.35,
2251917530.08304,Coast,50,359,-880,22.21,15.59,52.64,0.3,-140.14,128.89,82.24,0,7.35,
2251917530.16304,Coast,50,359,-881,22.19,15.56,52.56,0.3,-139.13,129.23,80.58,0,7.35,
2251917530.24304,Coast,50,359,-881,22.17,15.53,52.49,0.3,-137.82,129.6,78.91,0,7.35,
2251917530.32304,Coast,50,359,-882,22.15,15.51,52.41,0.31,-136.56,130.01,77.23,0,7.35,
2251917530.38304,Coast,50,359,-883,22.14,15.48,52.33,0.31,-135.36,130.35,75.54,0,7.35,
2251917530.46304,Coast,50,359,-884,22.12,15.45,52.26,0.31,-134.2,130.83,73.84,0,7.35,
2251917530.54304,Coast,50,359,-884,22.1,15.42,52.18,0.32,-133.09,131.35,72.57,0,7.35,
2251917530.62304,Coast,50,359,-885,22.09,15.39,52.11,0.32,-132.02,131.93,70.86,0,7.35,
2251917530.70304,Coast,50,359,-886,22.07,15.37,52.03,0.32,-131.01,132.55,69.14,0,7.35,
2251917530.78304,Coast,50,359,-886,22.05,15.34,51.95,0.33,-130.03,133.23,67.41,0,7.35,
2251917530.86304,Coast,50,359,-887,22.03,15.31,51.9,0.33,-129.1,133.96,65.68,0,7.35,
2251917530.94304,Coast,50,359,-888,22.02,15.29,51.82,0.33,-128.21,134.76,63.93,0,7.35,
2251917531.02304,Coast,49,359,-889,22,15.26,51.74,0.34,-127.57,135.63,62.18,0,7.35,
2251917531.10304,Coast,49,359,-889,21.98,15.23,51.67,0.34,-126.75,136.57,60.42,0,7.35,
2251917531.16304,Coast,49,359,-890,21.96,15.2,51.59,0.34,-125.96,137.33,58.65,0,7.35,
2251917531.24304,Coast,49,359,-891,21.95,15.17,51.51,0.35,-125.21,138.41,56.86,0,7.35,
2251917531.32304,Coast,49,359,-891,21.93,15.14,51.44,0.35,-124.5,139.59,55.52,0,7.35,
2251917531.40304,Coast,49,359,-892,21.91,15.11,51.36,0.35,-123.82,140.86,53.72,0,7.35,
2251917531.48304,Coast,49,359,-893,21.9,15.09,51.28,0.36,-123.18,142.24,51.91,0,7.35,
2251917531.56304,Coast,49,359,-894,21.88,15.06,51.21,0.36,-122.56,143.74,50.09,0,7.35,
2251917531.64304,Coast,49,359,-894,21.86,15.04,51.15,0.37,-121.98,145.36,48.26,0,7.35,
2251917531.72304,Coast,49,359,-895,21.85,15.01,51.07,0.37,-121.43,147.12,46.42,0,7.35,
2251917531.80304,Coast,49,359,-896,21.83,14.98,51,0.37,-121.04,149.02,44.57,0,7.35,
2251917531.88304,Coast,49,359,-896,21.81,14.95,50.92,0.38,-120.53,151.08,42.7,0,7.35,
2251917531.96304,Coast,49,359,-897,21.79,14.92,50.84,0.38,-120.06,153.31,40.82,0,7.35,
2251917532.02304,Coast,49,359,-898,21.78,14.89,50.77,0.38,-119.62,155.09,38.94,0,7.35,
2251917532.10304,Coast,49,359,-899,21.76,14.87,50.69,0.39,-119.2,157.63,37.04,0,7.35,
2251917532.18304,Coast,48,359,-899,21.74,14.84,50.61,0.39,-118.81,160.35,35.6,0,7.35,
2251917532.26304,Coast,48,358,-900,21.73,14.81,50.53,0.4,-118.45,163.27,33.68,0,7.35,
2251917532.34304,Coast,48,358,-901,21.71,14.79,50.46,0.4,-118.11,166.37,31.75,0,7.35,
2251917532.42304,Coast,48,358,-901,21.69,14.76,50.38,0.4,-117.8,169.66,29.8,0,7.35,
2251917532.50304,Coast,48,358,-902,21.68,14.73,50.32,0.41,-117.51,173.12,27.84,0,7.35,
2251917532.58304,Coast,48,358,-903,21.66,14.7,50.24,0.41,-117.25,176.73,25.87,0,7.35,
2251917532.66304,Coast,48,358,-904,21.64,14.67,50.17,0.42,-117.08,-179.53,23.89,0,7.35,
2251917532.74304,Coast,48,358,-904,21.62,14.64,50.09,0.42,-116.87,-175.7,21.89,0,7.35,
2251917532.82304,Coast,48,358,-905,21.61,14.62,50.01,0.42,-116.68,-172.78,19.88,0,7.35,
2251917532.88304,Coast,48,358,-906,21.59,14.59,49.93,0.43,-116.52,-168.88,17.85,0,7.35,
2251917532.96304,Coast,48,358,-907,21.57,14.56,49.86,0.43,-116.38,-164.99,15.81,0,7.35,
2251917533.04304,Coast,48,358,-907,21.56,14.53,49.78,0.44,-116.28,-161.15,14.27,0,7.35,
2251917533.12304,Coast,48,358,-908,21.54,14.5,49.7,0.44,-116.2,-157.4,12.21,0,7.35,
2251917533.20304,Coast,48,358,-909,21.53,14.48,49.62,0.45,-116.15,-153.78,10.13,0,7.35,
2251917533.28304,Coast,47,358,-909,21.51,14.45,49.54,0.45,-116.13,-150.31,8.04,0,7.35,
2251917533.36304,Coast,47,358,-910,21.49,14.42,49.49,0.46,-116.14,-147,5.94,0,7.35,
2251917533.44304,Coast,47,358,-911,21.48,14.4,49.41,0.46,-116.18,-143.88,3.82,0,7.35,
2251917533.52304,Coast,47,358,-911,21.46,14.37,49.33,0.46,-116.25,-140.94,1.69,0,7.35,
2251917533.60304,Coast,47,358,-912,21.44,14.34,49.25,0.47,-116.33,-138.19,-0.46,0,7.35,
2251917533.68304,Coast,47,358,-913,21.42,14.31,49.17,0.47,-116.46,-135.62,-2.62,0,7.35,
2251917533.76304,Coast,47,358,-914,21.41,14.28,49.1,0.48,-116.63,-133.81,-4.8,0,7.35,
2251917533.82304,Coast,47,358,-914,21.39,14.25,49.02,0.48,-116.84,-131.55,-6.98,0,7.35,
2251917533.90304,Coast,47,358,-915,21.37,14.23,48.94,0.49,-117.1,-129.46,-9.18,0,7.35,
2251917533.98304,Coast,47,358,-916,21.36,14.2,48.86,0.49,-117.4,-127.52,-10.84,0,7.35,
2251917534.06304,Coast,47,358,-916,21.34,14.17,48.78,0.5,-117.75,-125.72,-13.07,0,7.35,
2251917534.14304,Coast,47,358,-917,21.33,14.15,48.7,0.5,-118.15,-124.05,-15.3,0,7.35,
2251917534.22304,Coast,47,358,-918,21.31,14.12,48.62,0.51,-118.62,-122.52,-17.55,0,7.35,
2251917534.30304,Coast,47,358,-918,21.29,14.09,48.57,0.51,-119.15,-121.09,-19.81,0,7.35,
2251917534.38304,Coast,46,358,-919,21.28,14.06,48.49,0.52,-119.76,-119.77,-22.08,0,7.35,
2251917534.46304,Coast,46,358,-920,21.26,14.03,48.41,0.52,-120.45,-118.55,-24.37,0,7.35,
2251917534.54304,Coast,46,358,-920,21.24,14,48.33,0.53,-121.03,-117.42,-26.66,0,7.35,
2251917534.62304,Coast,46,358,-921,21.23,13.98,48.25,0.53,-121.89,-116.37,-28.97,0,7.35,
2251917534.70304,Coast,46,358,-922,21.21,13.95,48.17,0.54,-122.88,-115.63,-31.29,0,7.35,
2251917534.76304,Coast,46,358,-923,21.19,13.92,48.09,0.54,-123.99,-114.71,-33.62,0,7.35,
2251917534.84304,Coast,46,358,-923,21.18,13.89,48.01,0.55,-125.26,-113.86,-35.97,0,7.35,
2251917534.92304,Coast,46,357,-924,21.16,13.86,47.94,0.55,-126.71,-113.06,-37.73,0,7.35,
2251917535.00304,Coast,46,357,-925,21.14,13.83,47.86,0.56,-128.37,-112.32,-40.1,0,7.35,
2251917535.08304,Coast,46,357,-925,21.13,13.81,47.78,0.56,-130.28,-111.64,-42.47,0,7.35,
2251917535.16304,Coast,46,357,-926,21.11,13.78,47.7,0.57,-132.47,-111,-44.86,0,7.35,
2251917535.24304,Coast,46,357,-927,21.1,13.76,47.64,0.57,-135,-110.41,-47.25,0,7.35,
2251917535.32304,Coast,46,357,-927,21.08,13.73,47.56,0.58,-137.94,-109.86,-49.66,0,7.35,
2251917535.40304,Coast,46,357,-928,21.06,13.7,47.48,0.58,-141.36,-109.35,-52.08,0,7.35,
2251917535.48304,Coast,45,357,-929,21.05,13.67,47.4,0.59,-144.28,-108.88,-54.5,0,7.35,
2251917535.56304,Coast,45,357,-929,21.03,13.64,47.32,0.59,-148.72,-108.44,-56.94,0,7.35,
2251917535.64304,Coast,45,357,-930,21.02,13.61,47.24,0.6,-153.87,-108.14,-59.39,0,7.35,
2251917535.70304,Coast,45,357,-931,21,13.59,47.16,0.6,-159.78,-107.76,-61.84,0,7.35,
2251917535.78304,Coast,45,357,-931,20.98,13.56,47.08,0.61,-166.45,-107.41,-64.3,0,7.35,
2251917535.86304,Coast,45,357,-932,20.97,13.53,47,0.61,-173.83,-107.08,-66.15,0,7.35,
2251917535.94304,Coast,45,357,-933,20.95,13.5,46.92,0.62,178.27,-106.79,-68.62,0,7.35,
2251917536.02304,Coast,45,357,-933,20.94,13.48,46.84,0.62,170.13,-106.51,-71.1,0,7.35,
2251917536.10304,Coast,45,357,-934,20.92,13.45,46.76,0.63,162.08,-106.27,-73.59,0,7.35,
2251917536.18304,Coast,45,357,-935,20.91,13.42,46.7,0.63,154.42,-106.04,-76.08,0,7.35,
2251917536.26304,Coast,45,357,-935,20.89,13.39,46.62,0.63,147.39,-105.85,-78.58,0,7.35,
2251917536.34304,Coast,45,357,-936,20.87,13.37,46.54,0.64,142.61,-105.67,-81.09,0,7.35,
2251917536.42304,Coast,45,357,-937,20.86,13.34,46.46,0.64,136.89,-105.52,-83.61,0,7.35,
2251917536.50304,Coast,44,357,-937,20.84,13.31,46.38,0.65,131.92,-105.42,-86.14,0,7.35,
2251917536.56304,Coast,44,357,-938,20.82,13.28,46.3,0.65,127.61,-105.31,-88.67,0,7.35,
2251917536.64304,Coast,44,357,-939,20.81,13.25,46.22,0.66,123.89,-105.23,-91.22,0,7.35,
2251917536.72304,Coast,44,357,-939,20.79,13.22,46.14,0.67,120.67,-105.17,-93.13,0,7.35,
2251917536.80304,Coast,44,357,-940,20.78,13.2,46.06,0.67,117.87,-105.14,-95.7,0,7.35,
2251917536.88304,Coast,44,356,-941,20.76,13.18,45.98,0.68,115.44,-105.13,-98.27,0,7.35,
2251917536.96304,Coast,44,356,-941,20.75,13.15,45.92,0.68,113.3,-105.16,-100.86,0,7.35,
2251917537.04304,Coast,44,356,-942,20.73,13.12,45.84,0.69,111.42,-105.21,-103.46,0,7.35,
2251917537.12304,Coast,44,356,-943,20.72,13.09,45.76,0.69,110.16,-105.3,-106.07,0,7.35,
2251917537.20303,Coast,44,356,-943,20.7,13.06,45.68,0.7,108.64,-105.43,-108.69,0,7.35,
2251917537.28303,Coast,44,356,-944,20.68,13.03,45.6,0.7,107.28,-105.6,-111.33,0,7.35,
2251917537.34303,Coast,44,356,-945,20.67,13.01,45.52,0.71,106.06,-105.76,-113.98,0,7.35,
2251917537.42303,Coast,44,356,-945,20.65,12.98,45.44,0.71,104.97,-106.02,-116.64,0,7.35,
2251917537.50303,Coast,44,356,-946,20.64,12.95,45.36,0.72,103.97,-106.34,-118.65,0,7.35,
2251917537.58303,Coast,43,356,-946,20.62,12.92,45.28,0.72,103.07,-106.73,-121.33,0,7.35,
2251917537.66303,Coast,43,356,-947,20.61,12.9,45.2,0.73,102.24,-107.21,-124.03,0,7.35,
2251917537.74303,Coast,43,356,-948,20.59,12.87,45.12,0.73,101.49,-107.79,-126.74,0,7.35,
2251917537.82303,Coast,43,356,-948,20.58,12.84,45.06,0.74,100.79,-108.51,-129.47,0,7.35,
2251917537.90303,Coast,43,356,-949,20.56,12.81,44.98,0.74,100.15,-109.39,-132.21,0,7.35,
2251917537.98303,Coast,43,356,-950,20.55,12.79,44.9,0.74,99.7,-110.5,-134.96,0,7.35,
2251917538.06303,Coast,43,356,-950,20.53,12.76,44.81,0.75,99.14,-111.9,-137.73,0,7.35,
2251917538.14303,Coast,43,356,-951,20.51,12.73,44.73,0.75,98.62,-113.22,-140.51,0,7.35,
2251917538.20303,Coast,43,356,-952,20.5,12.7,44.65,0.76,98.13,-115.46,-143.3,0,7.35,
2251917538.28303,Coast,43,356,-952,20.48,12.67,44.57,0.76,97.68,-118.52,-146.1,0,7.35,
2251917538.36303,Coast,43,355,-953,20.47,12.64,44.49,0.77,97.25,-122.84,-148.22,0,7.35,
2251917538.44303,Coast,43,355,-953,20.46,12.62,44.41,0.77,96.85,-129.29,-151.05,0,7.35,
2251917538.52303,Coast,43,355,-954,20.44,12.6,44.33,0.77,96.48,-139.45,-153.89,0,7.35,
2251917538.60303,Coast,43,355,-955,20.42,12.57,44.27,0.78,96.12,-156.06,-156.74,0,7.35,
2251917538.68303,Coast,42,355,-955,20.41,12.54,44.19,0.78,95.79,178.92,-159.61,0,7.35,
2251917538.76303,Coast,42,355,-956,20.39,12.51,44.1,0.79,95.54,151.63,-162.48,0,7.35,
2251917538.84303,Coast,42,355,-957,20.38,12.48,44.02,0.79,95.23,131.54,-165.37,0,7.35,
2251917538.92303,Coast,42,355,-957,20.36,12.45,43.94,0.79,94.94,121.66,-168.27,0,7.35,
2251917538.98303,Coast,42,355,-958,20.35,12.43,43.86,0.8,94.65,112.99,-171.18,0,7.35,
2251917539.06303,Coast,42,355,-958,20.33,12.4,43.78,0.8,94.37,107.36,-173.37,0,7.35,
2251917539.14303,Coast,42,355,-959,20.32,12.37,43.7,0.8,94.1,103.48,-176.3,0,7.35,
2251917539.22303,Coast,42,355,-960,20.3,12.35,43.61,0.81,93.83,100.68,-179.24,0,7.35,
2251917539.30303,Coast,42,355,-960,20.29,12.32,43.53,0.81,93.56,98.56,177.82,0,7.35,
2251917539.38303,Coast,42,355,-961,20.27,12.29,43.47,0.81,93.3,96.91,174.87,0,7.35,
2251917539.46303,Coast,42,355,-961,20.26,12.26,43.39,0.82,93.02,95.59,171.91,0,7.35,
2251917539.54303,Coast,42,355,-962,20.24,12.24,43.31,0.82,92.81,94.5,168.94,0,7.35,
2251917539.62303,Coast,42,355,-963,20.23,12.21,43.23,0.82,92.51,93.58,165.97,0,7.35,
2251917539.68303,Coast,41,354,-963,20.21,12.18,43.14,0.82,92.2,92.97,162.99,0,7.35,
2251917539.76303,Coast,41,354,-964,20.2,12.15,43.06,0.83,91.86,92.26,160.01,0,7.35,
2251917539.84303,Coast,41,354,-964,20.18,12.12,42.98,0.83,91.49,91.64,157.78,0,7.35,
2251917539.92303,Coast,41,354,-965,20.17,12.1,42.9,0.83,91.09,91.08,154.79,0,7.35,
2251917540.00303,Coast,41,354,-965,20.15,12.07,42.82,0.83,90.64,90.57,151.8,0,7.35,
2251917540.08303,Coast,41,354,-966,20.14,12.05,42.75,0.83,90.13,90.1,148.82,0,7.35,
2251917540.16303,Coast,41,354,-967,20.12,12.02,42.67,0.83,89.54,89.67,145.83,0,7.35,
2251917540.24303,Coast,41,354,-967,20.11,11.99,42.59,0.84,89.04,89.26,142.85,0,7.35,
2251917540.32303,Coast,41,354,-968,20.09,11.96,42.51,0.84,88.27,88.88,139.86,0,7.35,
2251917540.38303,Coast,41,354,-968,20.08,11.93,42.43,0.84,87.34,88.61,136.88,0,7.35,
2251917540.46303,Coast,41,354,-969,20.06,11.9,42.34,0.84,86.2,88.25,133.91,0,7.35,
2251917540.54303,Coast,41,354,-969,20.05,11.88,42.26,0.84,84.76,87.91,131.67,0,7.35,
2251917540.62303,Coast,41,354,-970,20.04,11.85,42.18,0.84,82.89,87.57,128.7,0,7.35,
2251917540.70303,Coast,40,354,-971,20.02,11.83,42.1,0.84,80.34,87.24,125.73,0,7.35,
2251917540.78303,Coast,40,353,-971,20.01,11.8,42.03,0.84,76.69,86.91,122.77,0,7.35,
2251917540.86303,Coast,40,353,-972,19.99,11.77,41.95,0.84,71.1,86.58,119.8,0,7.35,
2251917540.94303,Coast,40,353,-972,19.98,11.74,41.87,0.84,64.58,86.24,116.84,0,7.35,
2251917541.02303,Coast,40,353,-973,19.96,11.72,41.79,0.84,49.8,85.9,113.89,0,7.35,
2251917541.10303,Coast,40,353,-973,19.95,11.69,41.7,0.84,22.44,85.63,110.94,0,7.35,
2251917541.16303,Coast,40,353,-974,19.93,11.66,41.62,0.84,-13.39,85.26,107.99,0,7.35,
2251917541.24303,Coast,40,353,-975,19.92,11.63,41.54,0.83,-38.39,84.88,105.05,0,7.35,
2251917541.32303,Coast,40,353,-975,19.9,11.6,41.46,0.83,-51.71,84.47,102.85,0,7.35,
2251917541.40303,Coast,40,353,-976,19.89,11.57,41.37,0.83,-59.16,84.05,99.92,0,7.35,
2251917541.48303,Coast,40,353,-976,19.88,11.55,41.29,0.83,-63.75,83.59,96.99,0,7.35,
2251917541.56303,Coast,40,353,-977,19.86,11.53,41.23,0.83,-66.8,83.11,94.08,0,7.35,
2251917541.64303,Coast,40,353,-977,19.85,11.5,41.15,0.82,-68.95,82.6,91.17,0,7.35,
2251917541.72303,Coast,39,352,-978,19.83,11.47,41.06,0.82,-70.17,82.05,88.27,0,7.35,
2251917541.80303,Coast,39,352,-978,19.82,11.44,40.98,0.82,-71.43,81.46,85.38,0,7.35,
2251917541.88303,Coast,39,352,-979,19.8,11.41,40.9,0.81,-72.4,80.82,82.51,0,7.35,
2251917541.94303,Coast,39,352,-979,19.79,11.39,40.81,0.81,-73.15,80.31,79.66,0,7.35,
2251917542.02303,Coast,39,352,-980,19.77,11.36,40.73,0.8,-73.72,79.56,76.82,0,7.35,
2251917542.10303,Coast,39,352,-980,19.76,11.33,40.65,0.8,-74.17,78.74,74.71,0,7.35,
2251917542.18303,Coast,39,352,-981,19.74,11.3,40.56,0.79,-74.51,77.84,71.92,0,7.35,
2251917542.26303,Coast,39,352,-981,19.73,11.28,40.48,0.79,-74.77,76.85,69.15,0,7.35,
2251917542.34303,Coast,39,352,-982,19.72,11.25,40.4,0.78,-74.95,75.75,66.41,0,7.35,
2251917542.42303,Coast,39,352,-982,19.7,11.22,40.33,0.77,-75.07,74.52,63.7,0,7.35,
2251917542.50303,Coast,39,352,-983,19.69,11.2,40.25,0.77,-75.13,73.15,61.01,0,7.35,
2251917542.58303,Coast,39,352,-983,19.68,11.17,40.17,0.76,-75.15,71.61,58.36,0,7.35,
2251917542.66303,Coast,39,351,-984,19.66,11.14,40.08,0.75,-75.13,69.88,55.74,0,7.35,
2251917542.74303,Coast,38,351,-984,19.65,11.11,40,0.75,-75.08,68.44,53.16,0,7.35,
2251917542.80303,Coast,38,351,-985,19.63,11.09,39.92,0.74,-74.99,66.31,50.61,0,7.35,
2251917542.88303,Coast,38,351,-986,19.62,11.06,39.83,0.73,-74.86,63.89,48.09,0,7.35,
2251917542.96303,Coast,38,351,-986,19.61,11.03,39.75,0.72,-74.7,61.15,46.23,0,7.35,
2251917543.04303,Coast,38,351,-986,19.6,11,39.67,0.71,-74.52,58.04,43.78,0,7.35,
2251917543.12303,Coast,38,351,-987,19.58,10.98,39.58,0.7,-74.3,54.52,41.37,0,7.35,
2251917543.20303,Coast,38,351,-987,19.57,10.95,39.52,0.69,-74.06,50.55,39,0,7.35,
2251917543.28303,Coast,38,351,-988,19.55,10.92,39.44,0.68,-73.8,46.1,36.68,0,7.35,
2251917543.36303,Coast,38,351,-988,19.54,10.9,39.35,0.67,-73.58,41.16,34.41,0,7.35,
2251917543.44303,Coast,38,351,-989,19.53,10.87,39.27,0.66,-73.28,35.75,32.18,0,7.35,
2251917543.52303,Coast,38,351,-989,19.51,10.84,39.19,0.64,-72.95,29.95,30.01,0,7.35,
2251917543.58303,Coast,38,350,-990,19.5,10.81,39.1,0.63,-72.6,25.41,27.89,0,7.35,
2251917543.66303,Coast,38,350,-991,19.48,10.79,39.02,0.62,-72.23,19.2,25.83,0,7.35,
2251917543.74303,Coast,38,350,-991,19.47,10.76,38.93,0.6,-71.83,13,24.32,0,7.35,
2251917543.82303,Coast,37,350,-991,19.46,10.73,38.85,0.59,-71.42,6.97,22.37,0,7.35,
2251917543.90303,Coast,37,350,-992,19.45,10.71,38.77,0.57,-70.98,1.26,20.47,0,7.35,
2251917543.98303,Coast,37,350,-992,19.43,10.68,38.68,0.56,-70.53,-4.02,18.64,0,7.35,
2251917544.06303,Coast,37,350,-993,19.42,10.65,38.62,0.54,-70.05,-8.81,16.87,0,7.35,
2251917544.14303,Coast,37,350,-993,19.41,10.63,38.53,0.52,-69.56,-13.08,15.16,0,7.35,
2251917544.22303,Coast,37,350,-994,19.39,10.6,38.45,0.51,-69.18,-16.85,13.53,0,7.35,
2251917544.30303,Coast,37,350,-994,19.38,10.57,38.37,0.49,-68.66,-20.15,11.96,0,7.35,
2251917544.38303,Coast,37,350,-995,19.37,10.54,38.28,0.47,-68.12,-23.01,10.45,0,7.35,
2251917544.44303,Coast,37,349,-995,19.35,10.51,38.2,0.46,-67.57,-24.9,9.02,0,7.35,
2251917544.52303,Coast,37,349,-996,19.34,10.49,38.11,0.44,-67,-27.1,7.66,0,7.35,
2251917544.60303,Coast,37,349,-996,19.32,10.46,38.03,0.42,-66.42,-28.99,6.37,0,7.35,
2251917544.68303,Coast,37,349,-997,19.31,10.43,37.94,0.4,-65.83,-30.6,5.45,0,7.35,
2251917544.76303,Coast,36,349,-997,19.3,10.4,37.86,0.38,-65.23,-31.95,4.29,0,7.35,
2251917544.84303,Coast,36,349,-998,19.29,10.38,37.78,0.36,-64.62,-33.09,3.21,0,7.35,
2251917544.92303,Coast,36,349,-998,19.27,10.35,37.69,0.33,-64,-34.02,2.2,0,7.35,
2251917545.00303,Coast,36,349,-999,19.26,10.33,37.63,0.31,-63.37,-34.77,1.27,0,7.35,
2251917545.08303,Coast,36,349,-999,19.25,10.3,37.54,0.29,-62.74,-35.35,0.42,0,7.35,
2251917545.16303,Coast,36,349,-1000,19.23,10.27,37.46,0.27,-62.26,-35.79,-0.35,0,7.35,
2251917545.24303,Coast,36,348,-1000,19.22,10.24,37.37,0.25,-61.62,-36.09,-1.04,0,7.35,
2251917545.32303,Coast,36,348,-1000,19.21,10.22,37.29,0.23,-60.98,-36.26,-1.64,0,7.35,
2251917545.38303,Coast,36,348,-1001,19.19,10.19,37.21,0.2,-60.33,-36.3,-2.16,0,7.35,
2251917545.46303,Coast,36,348,-1001,19.18,10.16,37.12,0.18,-59.69,-36.26,-2.59,0,7.35,
2251917545.54303,Coast,36,348,-1002,19.17,10.13,37.04,0.15,-59.05,-36.12,-2.94,0,7.35,
2251917545.62303,Coast,36,348,-1002,19.15,10.1,36.95,0.13,-58.41,-35.86,-3.14,0,7.35,
2251917545.70303,Coast,36,348,-1003,19.14,10.08,36.87,0.1,-57.78,-35.51,-3.33,0,7.35,
2251917545.78303,Coast,35,348,-1003,19.13,10.06,36.78,0.07,-57.16,-35.06,-3.43,0,7.35,
2251917545.86303,Coast,35,348,-1004,19.12,10.03,36.7,0.05,-56.55,-34.51,-3.43,0,7.35,
2251917545.94303,Coast,35,348,-1004,19.1,10,36.63,0.02,-55.94,-33.86,-3.34,0,7.35,
2251917546.02303,Coast,35,348,-1004,19.09,9.97,36.55,-0.01,-55.35,-33.12,-3.15,0,7.35,
2251917546.10303,Coast,35,347,-1005,19.08,9.95,36.46,-0.03,-54.91,-32.29,-2.87,0,7.35,
2251917546.18303,Coast,35,347,-1005,19.07,9.92,36.38,-0.06,-54.33,-31.38,-2.49,0,7.35,
2251917546.26303,Coast,35,347,-1006,19.05,9.89,36.29,-0.09,-53.75,-30.37,-2.02,0,7.35,
2251917546.32303,Coast,35,347,-1006,19.04,9.86,36.21,-0.13,-53.18,-29.57,-1.47,0,7.35,
2251917546.40303,Coast,35,347,-1007,19.03,9.84,36.12,-0.16,-52.61,-28.42,-0.82,0,7.35,
2251917546.48303,Coast,35,347,-1007,19.02,9.81,36.04,-0.19,-52.05,-27.19,-0.09,0,7.35,
2251917546.56303,Coast,35,347,-1008,19,9.78,35.95,-0.22,-51.48,-25.9,0.51,0,7.35,
2251917546.64303,Coast,35,347,-1008,18.99,9.75,35.87,-0.26,-50.9,-24.54,1.38,0,7.35,
2251917546.72303,Coast,35,347,-1008,18.98,9.73,35.78,-0.29,-50.32,-23.11,2.33,0,7.35,
2251917546.80303,Coast,34,347,-1009,18.97,9.7,35.7,-0.32,-49.72,-21.64,3.35,0,7.35,
2251917546.88303,Coast,34,347,-1009,18.96,9.68,35.63,-0.36,-49.11,-20.13,4.43,0,7.35,
2251917546.96303,Coast,34,347,-1010,18.95,9.65,35.55,-0.39,-48.48,-18.59,5.57,0,7.35,
2251917547.04303,Coast,34,347,-1010,18.94,9.62,35.46,-0.42,-47.99,-17.03,6.75,0,7.35,
2251917547.12303,Coast,34,346,-1011,18.93,9.59,35.38,-0.46,-47.31,-15.47,7.99,0,7.35,
2251917547.20303,Coast,34,346,-1011,18.92,9.57,35.29,-0.49,-46.6,-13.92,9.26,0,7.35,
2251917547.26303,Coast,34,346,-1012,18.91,9.54,35.21,-0.52,-45.87,-12.78,10.56,0,7.35,
2251917547.34303,Coast,34,346,-1012,18.89,9.51,35.12,-0.56,-45.1,-11.28,11.88,0,7.35,
2251917547.42303,Coast,34,346,-1012,18.88,9.48,35.04,-0.59,-44.3,-9.83,13.22,0,7.35,
2251917547.50303,Coast,34,346,-1013,18.87,9.46,34.95,-0.63,-43.47,-8.44,14.23,0,7.35,
2251917547.58303,Coast,34,346,-1013,18.86,9.43,34.87,-0.66,-42.6,-7.12,15.57,0,7.35,
2251917547.66302,Coast,34,346,-1014,18.86,9.41,34.78,-0.7,-41.7,-5.89,16.89,0,7.35,
2251917547.74302,Coast,34,346,-1014,18.85,9.38,34.69,-0.73,-40.77,-4.75,18.19,0,7.35,
2251917547.82302,Coast,33,346,-1015,18.83,9.35,34.63,-0.76,-39.82,-3.71,19.46,0,7.35,
2251917547.90302,Coast,33,346,-1015,18.82,9.32,34.54,-0.79,-38.83,-2.77,20.69,0,7.35,
2251917547.98302,Coast,33,346,-1016,18.81,9.3,34.46,-0.81,-38.07,-1.93,21.88,0,7.35,
2251917548.06302,Coast,33,346,-1016,18.8,9.27,34.37,-0.84,-37.04,-1.19,23.02,0,7.35,
2251917548.14302,Coast,33,346,-1017,18.79,9.24,34.29,-0.87,-36,-0.55,24.1,0,7.35,
2251917548.20302,Coast,33,346,-1017,18.78,9.21,34.2,-0.89,-34.93,-0.14,25.12,0,7.35,
2251917548.28302,Coast,33,346,-1018,18.77,9.19,34.12,-0.91,-33.85,0.34,26.07,0,7.35,
2251917548.38302,Engine spool,33,346,-1018,18.77,9.16,34.03,-0.97,-32.76,0.72,26.95,1,7.35,
2251917548.44302,Engine spool,33,346,-1018,18.77,9.13,33.94,-1.06,-31.52,0.9,27.7,1,7.34,
2251917548.52302,Engine spool,33,346,-1019,18.77,9.1,33.86,-1.14,-30.06,0.98,28.49,1,7.34,
2251917548.60302,Engine spool,33,346,-1019,18.77,9.08,33.77,-1.22,-28.39,1.02,29.14,1,7.34,
2251917548.68302,Engine spool,33,346,-1019,18.76,9.05,33.69,-1.28,-26.56,1.02,30.11,1,7.34,
2251917548.76302,Engine spool,32,346,-1020,18.76,9.03,33.6,-1.34,-24.58,1.01,31.23,1,7.33,
2251917548.84302,Engine spool,32,346,-1020,18.75,9,33.54,-1.38,-22.5,1.04,32.61,1,7.33,
2251917548.92302,Engine spool,32,346,-1021,18.74,8.97,33.45,-1.39,-20.33,1.14,34.39,1,7.33,
2251917549.00302,Engine spool,32,346,-1021,18.73,8.95,33.36,-1.38,-18.16,1.3,36.56,1,7.33,
2251917549.08302,Engine spool,32,346,-1022,18.71,8.92,33.28,-1.37,-16.56,1.44,38.86,1,7.33,
2251917549.16302,Engine spool,32,346,-1023,18.7,8.89,33.19,-1.34,-14.5,1.57,41.26,1,7.33,
2251917549.22302,Engine spool,32,346,-1023,18.68,8.86,33.1,-1.29,-12.55,1.67,43.79,1,7.33,
2251917549.30302,Engine spool,32,346,-1024,18.66,8.84,33.02,-1.24,-10.74,1.8,46.37,1,7.32,
2251917549.38302,Engine spool,32,346,-1025,18.64,8.81,32.93,-1.19,-9.08,1.92,48.31,1,7.32,
2251917549.46302,Engine spool,32,345,-1025,18.62,8.78,32.85,-1.13,-7.59,2.03,50.87,1,7.32,
2251917549.54302,Engine spool,32,345,-1026,18.61,8.76,32.76,-1.08,-6.25,2.13,53.33,1,7.32,
2251917549.62302,Engine spool,32,345,-1027,18.59,8.73,32.67,-1.02,-5.08,2.21,55.67,1,7.31,
2251917549.70302,Engine spool,32,345,-1028,18.57,8.71,32.61,-0.97,-4.05,2.28,57.84,1,7.31,
2251917549.78302,Engine spool,31,345,-1028,18.55,8.68,32.52,-0.92,-3.19,2.32,59.72,1,7.31,
2251917549.86302,Engine spool,31,345,-1029,18.53,8.65,32.43,-0.84,-2.67,2.31,60.83,1,7.3,
2251917549.94302,Engine spool,31,345,-1030,18.51,8.62,32.35,-0.78,-2.18,2.26,60.91,1,7.3,
2251917550.02302,Engine spool,31,344,-1031,18.49,8.6,32.26,-0.73,-1.9,2.2,59.77,1,7.29,
2251917550.08302,Engine spool,31,344,-1031,18.47,8.57,32.17,-0.74,-1.79,2.09,57.09,1,7.29,
2251917550.16302,Engine spool,31,344,-1032,18.46,8.54,32.09,-0.74,-1.68,1.98,54.52,1,7.29,
2251917550.24302,Engine spool,31,344,-1032,18.45,8.51,32,-0.75,-1.57,1.88,52.54,1,7.28,
2251917550.32302,Engine spool,31,344,-1033,18.44,8.49,31.91,-0.75,-1.45,1.8,49.53,1,7.28,
2251917550.40302,Engine spool,31,344,-1033,18.42,8.47,31.83,-0.75,-1.32,1.74,47.15,1,7.28,
2251917550.48302,Engine spool,31,344,-1034,18.41,8.44,31.76,-0.76,-1.19,1.69,44.25,1,7.28,
2251917550.56302,Engine spool,31,344,-1035,18.4,8.41,31.67,-0.76,-1.05,1.66,41.74,1,7.27,
2251917550.64302,Engine spool,31,344,-1035,18.39,8.38,31.59,-0.76,-0.88,1.61,39.04,1,7.27,
2251917550.72302,Engine spool,30,344,-1036,18.38,8.36,31.5,-0.76,-0.75,1.6,36.42,1,7.27,
2251917550.80302,Engine spool,30,344,-1036,18.37,8.33,31.41,-0.75,-0.56,1.57,34.33,1,7.27,
2251917550.86302,Engine spool,30,344,-1037,18.35,8.3,31.32,-0.76,-0.36,1.55,31.93,1,7.26,
2251917550.94302,Engine spool,30,344,-1037,18.34,8.27,31.24,-0.76,-0.14,1.55,30.2,1,7.26,
2251917551.02302,Engine spool,30,344,-1038,18.33,8.25,31.15,-0.75,0.07,1.57,28.69,1,7.26,
2251917551.10302,Engine spool,30,344,-1038,18.31,8.22,31.06,-0.74,0.26,1.57,26.53,1,7.26,
2251917551.18302,Engine spool,30,343,-1039,18.3,8.2,30.98,-0.75,0.41,1.58,24.99,1,7.26,
2251917551.26302,Engine spool,30,343,-1039,18.29,8.17,30.91,-0.75,0.57,1.6,23.45,1,7.25,
2251917551.34302,Engine spool,30,343,-1039,18.27,8.14,30.82,-0.76,0.75,1.63,22.1,1,7.25,
2251917551.42302,Engine spool,30,343,-1039,18.26,8.12,30.73,-0.77,0.88,1.65,20.83,1,7.24,
2251917551.50302,Engine spool,30,342,-1038,18.25,8.09,30.65,-0.77,1.05,1.7,19.64,1,7.23,
2251917551.58302,Engine spool,30,342,-1037,18.24,8.06,30.56,-0.78,1.2,1.74,18.79,1,7.22,
2251917551.64302,Engine spool,30,341,-1036,18.23,8.04,30.47,-0.79,1.33,1.81,17.67,1,7.21,
2251917551.72302,Engine spool,29,341,-1035,18.22,8.01,30.39,-0.8,1.46,1.9,16.97,1,7.2,
2251917551.80302,Engine spool,29,340,-1034,18.21,7.98,30.3,-0.8,1.58,2.02,16.56,1,7.18,
2251917551.88302,Engine spool,29,339,-1032,18.21,7.96,30.21,-0.79,1.67,2.14,15.78,1,7.17,
2251917551.96302,Engine spool,29,339,-1030,18.2,7.93,30.13,-0.8,1.75,2.23,15.32,1,7.16,
2251917552.04302,Engine spool,29,338,-1028,18.2,7.91,30.06,-0.78,1.81,2.35,14.8,1,7.15,
2251917552.12302,Engine spool,29,337,-1026,18.19,7.88,29.97,-0.77,1.85,2.44,14.21,1,7.13,
2251917552.20302,Engine spool,29,337,-1024,18.19,7.85,29.89,-0.77,1.88,2.49,13.72,1,7.12,
2251917552.28302,Engine spool,29,336,-1023,18.18,7.83,29.8,-0.76,1.9,2.56,13.36,1,7.11,
2251917552.34302,Engine spool,29,335,-1021,18.18,7.8,29.72,-0.76,1.9,2.61,12.91,1,7.09,
2251917552.46302,Entry burn,29,334,-1018,18.17,7.76,29.59,-0.76,1.91,2.67,12.43,1,7.06,
2251917552.62302,Entry burn,29,332,-1014,18.15,7.71,29.42,-0.78,1.86,2.81,12.61,1,7.04,
2251917552.76302,Entry burn,28,331,-1010,18.14,7.66,29.27,-0.77,1.54,3.07,12.48,1,7.01,
2251917552.92302,Entry burn,28,330,-1006,18.14,7.61,29.1,-0.77,1.15,3.32,13.17,1,6.98,
2251917553.06302,Entry burn,28,328,-1002,18.13,7.56,28.95,-0.78,0.88,3.55,13.41,1,6.95,
2251917553.22302,Entry burn,28,327,-998,18.13,7.51,28.78,-0.78,0.64,3.77,13.91,1,6.92,
2251917553.36302,Entry burn,28,325,-994,18.11,7.46,28.64,-0.8,0.47,3.92,13.72,1,6.89,
2251917553.52302,Entry burn,28,324,-990,18.11,7.41,28.47,-0.83,0.32,4.02,14.18,1,6.86,
2251917553.66302,Entry burn,27,322,-986,18.09,7.37,28.32,-0.82,0.2,4.09,14.28,1,6.83,
2251917553.82302,Entry burn,27,321,-982,18.08,7.32,28.16,-0.83,0.14,4.02,13.56,1,6.79,
2251917553.96302,Entry burn,27,319,-978,18.07,7.27,27.99,-0.86,0.17,3.89,13.68,1,6.76,
2251917554.12302,Entry burn,27,317,-974,18.05,7.22,27.85,-0.85,0.02,3.73,12.7,1,6.73,
2251917554.28302,Entry burn,27,316,-970,18.05,7.18,27.69,-0.86,-0.02,3.44,11.72,1,6.7,
2251917554.42302,Entry burn,27,314,-966,18.03,7.13,27.54,-0.84,-0.02,3.12,10.95,1,6.67,
2251917554.58302,Entry burn,27,313,-962,18.01,7.08,27.38,-0.84,-0.1,2.68,9.35,1,6.64,
2251917554.72302,Entry burn,26,311,-958,18,7.03,27.24,-0.82,-0.18,2.29,8.16,1,6.61,
2251917554.88302,Entry burn,26,309,-954,17.98,7,27.08,-0.8,-0.14,1.77,6.72,1,6.58,
2251917555.02302,Entry burn,26,308,-949,17.96,6.94,26.94,-0.8,-0.21,1.35,5.09,1,6.55,
2251917555.18302,Entry burn,26,306,-945,17.94,6.9,26.78,-0.78,-0.3,0.98,4.24,1,6.52,
2251917555.32302,Entry burn,26,304,-941,17.94,6.85,26.64,-0.75,-0.28,0.73,3.02,1,6.49,
2251917555.48302,Entry burn,26,303,-937,17.91,6.8,26.49,-0.7,-0.28,0.55,3.04,1,6.46,
2251917555.62302,Entry burn,26,301,-933,17.89,6.76,26.35,-0.66,-0.32,0.38,1.76,1,6.43,
2251917555.78302,Entry burn,25,300,-929,17.88,6.71,26.19,-0.64,-0.34,0.24,1.88,1,6.4,
2251917555.92302,Entry burn,25,298,-924,17.86,6.67,26.04,-0.59,-0.29,0.19,1.5,1,6.37,
2251917556.08302,Entry burn,25,296,-920,17.84,6.62,25.9,-0.54,-0.27,0.17,0.86,1,6.34,
2251917556.24302,Entry burn,25,294,-916,17.82,6.58,25.75,-0.46,-0.3,0.14,1.2,1,6.31,
2251917556.38302,Entry burn,25,293,-912,17.81,6.53,25.61,-0.41,-0.21,0.12,0.52,1,6.28,
2251917556.54302,Entry burn,25,291,-907,17.79,6.49,25.46,-0.34,-0.15,0.13,0.79,1,6.25,
2251917556.68302,Entry burn,25,289,-903,17.77,6.45,25.33,-0.29,-0.13,0.11,0.47,1,6.22,
2251917556.84302,Entry burn,24,288,-899,17.76,6.41,25.18,-0.23,-0.14,0.14,0.5,1,6.2,
2251917556.98302,Entry burn,24,286,-894,17.74,6.36,25.05,-0.15,-0.13,0.17,0.66,1,6.16,
2251917557.14302,Entry burn,24,284,-890,17.72,6.32,24.9,-0.09,-0.17,0.18,0.28,1,6.14,
2251917557.28302,Entry burn,24,283,-885,17.71,6.28,24.77,-0.01,-0.2,0.22,0.84,1,6.11,
2251917557.44302,Entry burn,24,281,-881,17.69,6.23,24.62,0.05,-0.1,0.22,0.06,1,6.08,
2251917557.60302,Re-entry,24,280,-879,17.67,6.19,24.47,0.07,-0.05,0.26,0.71,0,6.07,
2251917557.74302,Re-entry,24,280,-880,17.65,6.15,24.34,0.07,-0.06,0.31,0.77,0,6.07,
2251917557.90302,Re-entry,24,279,-880,17.62,6.11,24.19,0.08,0,0.37,0.78,0,6.07,
2251917558.04302,Re-entry,23,279,-881,17.59,6.06,24.06,0.08,0.04,0.41,1.01,0,6.07,
2251917558.18301,Re-entry,23,279,-882,17.57,6.03,23.94,0.08,0.08,0.43,1.09,0,6.06,
2251917558.34301,Re-entry,23,279,-882,17.53,5.98,23.79,0.09,0.09,0.44,1.08,0,6.06,
2251917558.48301,Re-entry,23,278,-883,17.51,5.94,23.66,0.09,0.08,0.43,1.09,0,6.06,
2251917558.64301,Re-entry,23,278,-884,17.48,5.9,23.51,0.1,0.07,0.4,1.06,0,6.06,
2251917558.78301,Re-entry,23,278,-884,17.45,5.86,23.38,0.11,0.05,0.35,0.88,0,6.06,
2251917558.94301,Re-entry,23,277,-885,17.42,5.82,23.23,0.11,-0.02,0.27,0.65,0,6.06,
2251917559.08301,Re-entry,22,277,-886,17.39,5.78,23.1,0.12,-0.16,0.18,0.31,0,6.06,
2251917559.24301,Re-entry,22,277,-886,17.37,5.74,22.95,0.13,-0.26,0.05,-0.08,0,6.06,
2251917559.38301,Re-entry,22,277,-886,17.35,5.69,22.82,0.13,-0.27,-0.09,-0.6,0,6.06,
2251917559.52301,Re-entry,22,276,-887,17.32,5.66,22.68,0.13,-0.19,-0.26,-1.09,0,6.06,
2251917559.68301,Re-entry,22,276,-887,17.29,5.61,22.55,0.14,-0.11,-0.41,-1.66,0,6.06,
2251917559.82301,Re-entry,22,276,-888,17.26,5.57,22.42,0.13,-0.12,-0.57,-2.15,0,6.06,
2251917559.98301,Re-entry,22,275,-888,17.22,5.53,22.27,0.12,-0.23,-0.69,-2.54,0,6.06,
2251917560.12301,Re-entry,22,275,-889,17.2,5.49,22.14,0.11,-0.34,-0.77,-2.84,0,6.06,
2251917560.28301,Re-entry,21,275,-889,17.18,5.45,21.99,0.09,-0.4,-0.79,-2.88,0,6.06,
2251917560.42301,Re-entry,21,274,-889,17.16,5.41,21.86,0.07,-0.36,-0.74,-2.72,0,6.06,
2251917560.58301,Re-entry,21,274,-890,17.13,5.36,21.71,0.05,-0.26,-0.6,-2.29,0,6.06,
2251917560.72301,Re-entry,21,274,-890,17.1,5.33,21.58,0.02,-0.12,-0.38,-1.52,0,6.06,
2251917560.88301,Re-entry,21,273,-890,17.07,5.29,21.43,0,-0.06,-0.03,-0.44,0,6.06,
2251917561.02301,Re-entry,21,273,-890,17.04,5.24,21.3,-0.03,-0.06,0.36,1.06,0,6.06,
2251917561.18301,Re-entry,21,272,-891,17,5.21,21.15,-0.03,-0.12,0.91,2.67,0,6.06,
2251917561.32301,Re-entry,20,272,-891,16.98,5.16,21.02,-0.02,-0.26,1.39,4.46,0,6.06,
2251917561.48301,Re-entry,20,271,-891,16.95,5.13,20.87,0,-0.37,1.9,5.94,0,6.06,
2251917561.62301,Re-entry,20,271,-891,16.93,5.08,20.74,0.02,-0.44,2.26,7.19,0,6.06,
2251917561.76301,Re-entry,20,271,-891,16.91,5.04,20.59,0.05,-0.43,2.54,8.06,0,6.06,
2251917561.92301,Re-entry,20,270,-891,16.89,5,20.46,0.09,-0.36,2.65,8.4,0,6.06,
2251917562.06301,Re-entry,20,270,-891,16.86,4.96,20.33,0.13,-0.25,2.57,8.11,0,6.05,
2251917562.22301,Re-entry,20,269,-891,16.84,4.92,20.18,0.17,-0.07,2.34,7.65,0,6.05,
2251917562.36301,Re-entry,20,269,-891,16.81,4.88,20.05,0.17,0.05,1.99,6.37,0,6.05,
2251917562.52301,Re-entry,19,268,-891,16.77,4.85,19.91,0.17,0.11,1.55,4.79,0,6.05,
2251917562.66301,Re-entry,19,268,-891,16.74,4.8,19.78,0.18,0.1,1.14,3.36,0,6.05,
2251917562.82301,Re-entry,19,267,-891,16.72,4.77,19.63,0.19,0.06,0.64,1.78,0,6.05,
2251917562.96301,Re-entry,19,267,-891,16.68,4.72,19.5,0.2,-0.03,0.17,-0.01,0,6.05,
2251917563.12301,Re-entry,19,266,-891,16.66,4.69,19.35,0.21,-0.14,-0.39,-1.72,0,6.05,
2251917563.26301,Re-entry,19,266,-890,16.63,4.64,19.22,0.2,-0.26,-0.9,-3.6,0,6.05,
2251917563.40301,Re-entry,19,265,-890,16.61,4.61,19.07,0.17,-0.31,-1.39,-5.15,0,6.05,
2251917563.56301,Re-entry,19,265,-890,16.59,4.56,18.94,0.13,-0.31,-1.7,-6.13,0,6.05,
2251917563.70301,Re-entry,18,264,-889,16.57,4.53,18.81,0.1,-0.24,-1.87,-6.67,0,6.05,
2251917563.86301,Re-entry,18,264,-889,16.54,4.48,18.66,0.09,-0.1,-1.88,-7.01,0,6.05,
2251917564.00301,Re-entry,18,263,-889,16.52,4.45,18.53,0.1,0,-1.8,-6.47,0,6.05,
2251917564.16301,Re-entry,18,263,-888,16.48,4.41,18.38,0.1,0.05,-1.66,-6.02,0,6.05,
2251917564.30301,Re-entry,18,262,-888,16.46,4.37,18.25,0.09,0.08,-1.5,-5.46,0,6.05,
2251917564.46301,Re-entry,18,261,-887,16.43,4.33,18.11,0.08,0.09,-1.24,-4.7,0,6.05,
2251917564.60301,Re-entry,18,261,-886,16.4,4.29,17.98,0.07,0.05,-0.95,-3.5,0,6.05,
2251917564.76301,Re-entry,17,260,-886,16.37,4.25,17.83,0.06,-0.06,-0.52,-2.18,0,6.05,
2251917564.90301,Re-entry,17,259,-885,16.34,4.21,17.7,0.04,-0.2,-0.08,-0.47,0,6.05,
2251917565.06301,Re-entry,17,259,-884,16.32,4.18,17.55,0.05,-0.29,0.51,1.34,0,6.04,
2251917565.20301,Re-entry,17,258,-884,16.31,4.14,17.42,0.07,-0.3,1.02,3.2,0,6.04,
2251917565.36301,Re-entry,17,258,-883,16.29,4.1,17.28,0.1,-0.2,1.51,4.83,0,6.04,
2251917565.50301,Re-entry,17,257,-882,16.26,4.06,17.15,0.12,0,1.83,6.18,0,6.04,
2251917565.64301,Re-entry,17,256,-881,16.23,4.02,17.02,0.16,0.13,2.06,6.61,0,6.04,
2251917565.80301,Re-entry,17,255,-880,16.2,3.98,16.87,0.2,0.22,2.13,7.09,0,6.04,
2251917565.94301,Re-entry,16,255,-879,16.17,3.95,16.75,0.21,0.23,2.07,7.01,0,6.04,
2251917566.10301,Re-entry,16,254,-878,16.14,3.91,16.6,0.21,0.18,1.92,6.2,0,6.04,
2251917566.24301,Re-entry,16,253,-877,16.11,3.87,16.47,0.21,0.07,1.77,5.61,0,6.04,
2251917566.40301,Re-entry,16,252,-876,16.09,3.84,16.33,0.22,-0.07,1.55,4.83,0,6.04,
2251917566.54301,Final approach,16,252,-874,16.06,3.8,16.2,0.24,-0.27,1.29,3.9,0,6.04,
2251917566.72301,Final approach,16,251,-873,16.04,3.76,16.04,0.26,-0.39,0.97,2.76,0,6.04,
2251917566.88301,Final approach,16,250,-871,16.02,3.72,15.89,0.28,-0.36,0.57,1.41,0,6.04,
2251917567.04301,Final approach,15,249,-870,16,3.68,15.75,0.31,-0.2,0.1,-0.26,0,6.04,
2251917567.20301,Final approach,15,248,-869,15.97,3.63,15.6,0.33,0.01,-0.43,-2.24,0,6.04,
2251917567.36301,Final approach,15,247,-867,15.93,3.59,15.46,0.32,0.04,-0.96,-4.12,0,6.03,
2251917567.52301,Final approach,15,246,-866,15.89,3.55,15.31,0.3,-0.1,-1.38,-5.77,0,6.03,
2251917567.68301,Final approach,15,245,-864,15.85,3.51,15.17,0.3,-0.35,-1.64,-6.7,0,6.03,
2251917567.84301,Final approach,15,244,-862,15.83,3.47,15.03,0.28,-0.6,-1.75,-6.59,0,6.03,
2251917568.00301,Final approach,15,243,-860,15.81,3.43,14.88,0.28,-0.73,-1.69,-6.74,0,6.03,
2251917568.18301,Final approach,14,243,-858,15.8,3.4,14.72,0.3,-0.68,-1.5,-6.2,0,6.03,
2251917568.34301,Final approach,14,242,-856,15.77,3.36,14.58,0.31,-0.55,-1.26,-5.26,0,6.03,
2251917568.50301,Final approach,14,241,-854,15.75,3.31,14.44,0.31,-0.35,-0.97,-4.33,0,6.03,
2251917568.663,Final approach,14,240,-853,15.71,3.28,14.3,0.31,-0.09,-0.58,-3.15,0,6.03,
2251917568.823,Final approach,14,238,-851,15.68,3.24,14.15,0.3,0.02,-0.11,-1.09,0,6.03,
2251917568.983,Final approach,14,237,-848,15.64,3.2,14.01,0.29,-0.03,0.46,0.79,0,6.03,
2251917569.143,Final approach,14,236,-846,15.61,3.16,13.87,0.29,-0.19,1.11,3.22,0,6.03,
2251917569.303,Final approach,13,235,-844,15.59,3.12,13.73,0.32,-0.3,1.77,5.24,0,6.03,
2251917569.463,Final approach,13,234,-842,15.57,3.09,13.59,0.37,-0.25,2.38,7.38,0,6.02,
2251917569.643,Final approach,13,233,-839,15.56,3.05,13.44,0.41,-0.05,2.74,8.71,0,6.02,
2251917569.803,Final approach,13,232,-837,15.53,3.01,13.3,0.45,0.18,2.91,9.1,0,6.02,
2251917569.963,Final approach,13,231,-835,15.48,2.97,13.16,0.51,0.37,2.88,9.78,0,6.02,
2251917570.123,Final approach,13,230,-832,15.44,2.93,13.02,0.54,0.34,2.63,8.77,0,6.02,
2251917570.283,Final approach,13,228,-830,15.41,2.9,12.88,0.56,0.12,2.27,6.73,0,6.02,
2251917570.443,Final approach,13,227,-827,15.37,2.86,12.75,0.6,-0.18,1.8,5.07,0,6.02,
2251917570.603,Final approach,12,226,-824,15.35,2.82,12.61,0.64,-0.51,1.22,2.21,0,6.02,
2251917570.763,Final approach,12,225,-821,15.33,2.79,12.47,0.68,-0.72,0.52,-0.57,0,6.02,
2251917570.923,Final approach,12,224,-819,15.31,2.75,12.34,0.67,-0.77,-0.19,-2.4,0,6.01,
2251917571.083,Final approach,12,223,-816,15.29,2.72,12.2,0.65,-0.68,-0.88,-5.04,0,6.01,
2251917571.263,Final approach,12,222,-813,15.27,2.68,12.05,0.6,-0.44,-1.25,-7.5,0,6.01,
2251917571.423,Final approach,12,221,-810,15.24,2.65,11.91,0.62,-0.15,-1.31,-7.12,0,6.01,
2251917571.583,Final approach,12,219,-807,15.21,2.61,11.78,0.62,0.05,-1.26,-5.59,0,6.01,
2251917571.743,Final approach,11,218,-805,15.18,2.57,11.65,0.67,0.25,-1.05,-5.53,0,6,
2251917571.903,Final approach,11,217,-802,15.14,2.54,11.51,0.71,0.33,-0.82,-5.28,0,6,
2251917572.063,Final approach,11,215,-799,15.11,2.5,11.38,0.75,0.32,-0.59,-4.27,0,6,
2251917572.223,Final approach,11,214,-795,15.08,2.47,11.25,0.78,0.22,-0.34,-3.54,0,6,
2251917572.383,Final approach,11,213,-792,15.05,2.43,11.12,0.8,0.07,-0.06,-2.65,0,6,
2251917572.543,Final approach,11,212,-789,15.03,2.4,10.99,0.8,-0.03,0.33,-1.36,0,6,
2251917572.703,Final approach,11,211,-786,15.02,2.37,10.84,0.79,0,0.78,0.15,0,6,
2251917572.883,Final approach,11,209,-783,14.99,2.33,10.71,0.79,0.12,1.33,2.13,0,6,
2251917573.043,Final approach,10,208,-780,14.96,2.3,10.58,0.8,0.22,1.95,4.49,0,6,
2251917573.203,Final approach,10,207,-776,14.91,2.27,10.45,0.85,0.18,2.56,6.58,0,6,
2251917573.363,Final approach,10,205,-773,14.88,2.23,10.33,0.92,-0.07,3,8.33,0,6,
2251917573.523,Final approach,10,204,-770,14.85,2.2,10.2,0.98,-0.38,3.21,8.58,0,6,
2251917573.683,Final approach,10,203,-766,14.84,2.16,10.07,1.03,-0.54,3.24,8.95,0,6,
2251917573.843,Final approach,10,202,-762,14.83,2.13,9.95,1.09,-0.53,3.1,7.9,0,6,
2251917574.003,Final approach,10,201,-758,14.82,2.1,9.82,1.16,-0.29,2.79,6.58,0,6,
2251917574.163,Final approach,10,199,-755,14.8,2.07,9.69,1.23,0.17,2.31,5.24,0,6,
2251917574.323,Final approach,9,198,-751,14.76,2.04,9.57,1.28,0.57,1.58,1.48,0,6,
2251917574.483,Final approach,9,196,-748,14.71,2,9.43,1.31,0.73,0.83,-2.47,0,5.99,
2251917574.663,Final approach,9,194,-744,14.66,1.97,9.31,1.24,0.68,0.1,-4.03,0,5.99,
2251917574.823,Final approach,9,193,-741,14.63,1.94,9.18,1.23,0.39,-0.3,-4.51,0,5.99,
2251917574.983,Final approach,9,192,-737,14.6,1.91,9.06,1.25,-0.01,-0.48,-6.47,0,5.99,
2251917575.143,Final approach,9,191,-733,14.58,1.88,8.94,1.25,-0.32,-0.51,-7.91,0,5.98,
2251917575.303,Final approach,9,189,-730,14.55,1.85,8.82,1.31,-0.57,-0.35,-5.74,0,5.98,
2251917575.463,Final approach,9,188,-725,14.53,1.82,8.7,1.38,-0.68,-0.15,-3.48,0,5.98,
2251917575.623,Final approach,9,186,-722,14.5,1.79,8.58,1.42,-0.72,0,-3.97,0,5.98,
2251917575.783,Final approach,8,185,-718,14.48,1.76,8.46,1.5,-0.7,0.24,-3.71,0,5.98,
2251917575.943,Final approach,8,184,-714,14.45,1.73,8.33,1.58,-0.61,0.45,-2.44,0,5.98,
2251917576.123,Final approach,8,183,-710,14.42,1.7,8.21,1.64,-0.47,0.6,-2.62,0,5.97,
2251917576.283,Final approach,8,181,-706,14.4,1.67,8.1,1.68,-0.27,0.77,-1.93,0,5.97,
2251917576.443,Final approach,8,180,-703,14.36,1.64,7.98,1.73,-0.04,0.95,-1.88,0,5.97,
2251917576.603,Final approach,8,178,-699,14.32,1.61,7.86,1.75,0.13,1.14,-1.03,0,5.97,
2251917576.763,Final approach,8,177,-695,14.29,1.58,7.75,1.78,0.17,1.37,-0.35,0,5.97,
2251917576.923,Final approach,8,175,-691,14.26,1.55,7.63,1.8,0.14,1.65,0.61,0,5.97,
2251917577.083,Final approach,7,174,-687,14.22,1.52,7.52,1.81,0.03,1.96,1.53,0,5.97,
2251917577.243,Final approach,7,173,-683,14.19,1.5,7.41,1.8,-0.13,2.32,2.83,0,5.97,
2251917577.403,Final approach,7,171,-679,14.17,1.47,7.3,1.81,-0.27,2.75,4.34,0,5.97,
2251917577.563,Final approach,7,170,-675,14.16,1.44,7.18,1.84,-0.26,3.27,6.06,0,5.97,
2251917577.723,Final approach,7,169,-671,14.13,1.42,7.06,1.89,-0.13,3.7,7.65,0,5.97,
2251917577.903,Final approach,7,167,-667,14.07,1.39,6.95,1.97,-0.14,3.98,8.65,0,5.97,
2251917578.023,Landing burn,7,166,-663,14.02,1.37,6.87,2.06,-0.46,4.02,8.57,1,5.97,
2251917578.103,Landing burn,7,165,-662,14.01,1.36,6.81,2.12,-0.63,3.93,8.07,1,5.97,
2251917578.183,Landing burn,7,165,-660,14.01,1.34,6.77,2.18,-0.73,3.78,7.39,1,5.97,
2251917578.243,Landing burn,7,164,-658,14,1.33,6.72,2.24,-0.73,3.56,7.2,1,5.97,
2251917578.323,Landing burn,7,163,-656,13.99,1.32,6.66,2.3,-0.67,3.35,7.29,1,5.97,
2251917578.403,Landing burn,7,163,-654,13.97,1.31,6.62,2.38,-0.61,3.01,7.17,1,5.97,
2251917578.483,Landing burn,7,162,-652,13.96,1.29,6.57,2.43,-0.58,2.6,6.23,1,5.97,
2251917578.543,Landing burn,7,162,-650,13.95,1.28,6.52,2.49,-0.55,2.23,4.44,1,5.97,
2251917578.623,Landing burn,6,161,-648,13.95,1.27,6.48,2.51,-0.48,1.72,2.86,1,5.97,
2251917578.703,Landing burn,6,160,-646,13.94,1.26,6.42,2.55,-0.36,1.21,0.96,1,5.97,
2251917578.763,Landing burn,6,160,-644,13.93,1.25,6.37,2.59,-0.23,0.84,-0.41,1,5.97,
2251917578.843,Landing burn,6,159,-643,13.92,1.24,6.32,2.61,-0.06,0.32,-1.19,1,5.96,
2251917578.923,Landing burn,6,158,-641,13.9,1.22,6.28,2.63,0.08,-0.17,-2.17,1,5.96,
2251917578.983,Landing burn,6,158,-639,13.88,1.21,6.22,2.65,0.16,-0.61,-3.44,1,5.96,
2251917579.063,Landing burn,6,157,-637,13.87,1.2,6.17,2.7,0.25,-0.93,-4.82,1,5.96,
2251917579.14299,Landing burn,6,157,-635,13.85,1.19,6.13,2.71,0.35,-1.32,-7.17,1,5.96,
2251917579.22299,Landing burn,6,156,-633,13.84,1.18,6.08,2.69,0.42,-1.63,-9.43,1,5.96,
2251917579.28299,Landing burn,6,155,-632,13.82,1.16,6.03,2.68,0.48,-1.79,-10.99,1,5.96,
2251917579.36299,Landing burn,6,155,-629,13.8,1.15,5.99,2.72,0.5,-1.93,-11.45,1,5.96,
2251917579.44299,Landing burn,6,154,-627,13.78,1.14,5.94,2.77,0.48,-2.03,-11.02,1,5.95,
2251917579.50299,Landing burn,6,153,-625,13.77,1.13,5.89,2.74,0.41,-2.09,-9.66,1,5.95,
2251917579.58299,Landing burn,6,153,-624,13.75,1.12,5.83,2.77,0.3,-2.03,-8.05,1,5.95,
2251917579.66299,Landing burn,6,152,-622,13.73,1.11,5.8,2.78,0.19,-1.93,-6.27,1,5.95,
2251917579.72299,Landing burn,6,151,-620,13.71,1.1,5.74,2.77,0.12,-1.78,-5.02,1,5.95,
2251917579.80299,Landing burn,6,151,-618,13.7,1.09,5.69,2.86,0.03,-1.5,-4.44,1,5.95,
2251917579.88299,Landing burn,6,150,-616,13.68,1.08,5.66,2.94,-0.06,-1.24,-4.3,1,5.95,
2251917579.96299,Landing burn,6,149,-614,13.66,1.06,5.61,3.03,-0.15,-1,-4.27,1,5.94,
2251917580.02299,Landing burn,6,149,-613,13.64,1.05,5.55,3.13,-0.3,-0.84,-3.78,1,5.94,
2251917580.10299,Landing burn,6,148,-611,13.64,1.04,5.52,3.22,-0.44,-0.64,-3.04,1,5.94,
2251917580.18299,Landing burn,5,147,-609,13.62,1.03,5.47,3.3,-0.54,-0.46,-1.67,1,5.94,
2251917580.24299,Landing burn,5,147,-606,13.62,1.02,5.42,3.38,-0.62,-0.33,-0.34,1,5.94,
2251917580.32299,Landing burn,5,146,-605,13.61,1.01,5.37,3.46,-0.67,-0.18,0.22,1,5.94,
2251917580.40299,Landing burn,5,146,-603,13.6,1,5.33,3.53,-0.69,-0.05,0.37,1,5.94,
2251917580.46299,Landing burn,5,145,-601,13.59,0.99,5.28,3.6,-0.69,0.07,0.48,1,5.94,
2251917580.54299,Landing burn,5,145,-599,13.57,0.98,5.23,3.67,-0.67,0.16,0.82,1,5.94,
2251917580.62299,Landing burn,5,144,-597,13.57,0.97,5.19,3.73,-0.6,0.28,1.61,1,5.94,
2251917580.70299,Landing burn,5,143,-595,13.56,0.96,5.15,3.77,-0.53,0.41,2.25,1,5.94,
2251917580.76299,Landing burn,5,143,-594,13.55,0.94,5.1,3.82,-0.41,0.51,2.55,1,5.94,
2251917580.84299,Landing burn,5,142,-592,13.54,0.94,5.06,3.87,-0.29,0.66,2.87,1,5.94,
2251917580.92299,Landing burn,5,142,-590,13.51,0.92,5.01,3.91,-0.16,0.83,3.7,1,5.94,
2251917580.98299,Landing burn,5,141,-587,13.49,0.91,4.96,3.94,-0.11,0.98,4.81,1,5.93,
2251917581.06299,Landing burn,5,140,-585,13.47,0.9,4.92,3.98,-0.08,1.2,5.48,1,5.93,
2251917581.14299,Landing burn,5,139,-582,13.44,0.89,4.88,4.03,-0.12,1.46,6.27,1,5.92,
2251917581.20299,Landing burn,5,138,-578,13.42,0.88,4.83,4.06,-0.18,1.79,7.48,1,5.92,
2251917581.28299,Landing burn,5,137,-576,13.4,0.87,4.78,4.11,-0.31,2.07,8.74,1,5.91,
2251917581.36299,Landing burn,5,136,-572,13.38,0.86,4.75,4.16,-0.48,2.51,10.53,1,5.9,
2251917581.44299,Landing burn,5,135,-568,13.37,0.85,4.7,4.21,-0.64,3,12.09,1,5.89,
2251917581.50299,Landing burn,5,134,-564,13.36,0.84,4.66,4.29,-0.86,3.4,13.59,1,5.88,
2251917581.58299,Landing burn,5,133,-560,13.35,0.83,4.62,4.35,-1.06,3.95,14.93,1,5.87,
2251917581.66299,Landing burn,5,132,-556,13.35,0.82,4.58,4.39,-1.16,4.53,17.21,1,5.85,
2251917581.72299,Landing burn,5,131,-552,13.35,0.81,4.53,4.46,-1.23,4.99,19.67,1,5.84,
2251917581.80299,Landing burn,5,130,-548,13.35,0.8,4.49,4.51,-1.25,5.58,21.3,1,5.83,
2251917581.88299,Landing burn,4,129,-543,13.35,0.79,4.45,4.56,-1.27,6.15,22.96,1,5.81,
2251917581.94299,Landing burn,4,128,-539,13.35,0.78,4.41,4.62,-1.27,6.56,24.2,1,5.8,
2251917582.02299,Landing burn,4,127,-535,13.35,0.78,4.36,4.69,-1.24,7.03,25.06,1,5.79,
2251917582.10299,Landing burn,4,126,-530,13.36,0.77,4.33,4.73,-1.11,7.44,26.45,1,5.78,
2251917582.16299,Landing burn,4,125,-526,13.36,0.76,4.29,4.76,-0.92,7.81,28.37,1,5.76,
2251917582.24299,Landing burn,4,124,-522,13.37,0.75,4.24,4.85,-0.56,8.03,29.93,1,5.75,
2251917582.32299,Landing burn,4,123,-518,13.38,0.74,4.21,4.92,-0.17,8.21,31.73,1,5.73,
2251917582.40299,Landing burn,4,122,-513,13.4,0.73,4.17,4.94,0.11,8.28,32.77,1,5.72,
2251917582.46299,Landing burn,4,122,-510,13.41,0.72,4.13,4.97,0.37,8.29,32.86,1,5.71,
2251917582.54299,Landing burn,4,121,-505,13.41,0.71,4.1,5.04,0.55,8.22,32.46,1,5.69,
2251917582.62299,Landing burn,4,119,-501,13.42,0.7,4.06,5.11,0.65,8.05,31.58,1,5.68,
2251917582.68299,Landing burn,4,119,-497,13.43,0.69,4.01,5.14,0.78,7.85,30.69,1,5.66,
2251917582.76299,Landing burn,4,118,-493,13.44,0.69,3.97,5.19,0.98,7.51,30.25,1,5.65,
2251917582.84299,Landing burn,4,117,-488,13.44,0.68,3.94,5.28,1.19,7.09,29.83,1,5.64,
2251917582.90299,Landing burn,4,116,-484,13.45,0.67,3.9,5.41,1.31,6.69,29.09,1,5.62,
2251917582.98299,Landing burn,4,115,-480,13.45,0.66,3.86,5.57,1.36,6.06,27.93,1,5.61,
2251917583.06299,Landing burn,4,114,-476,13.46,0.65,3.83,5.7,1.27,5.33,25.3,1,5.6,
2251917583.12299,Landing burn,4,113,-472,13.46,0.64,3.8,5.8,1.12,4.75,21.53,1,5.58,
2251917583.20299,Landing burn,4,112,-468,13.46,0.64,3.76,5.94,0.85,3.96,18.24,1,5.57,
2251917583.28299,Landing burn,4,111,-464,13.46,0.63,3.73,6.1,0.56,3.14,13.99,1,5.56,
2251917583.34299,Landing burn,4,110,-460,13.46,0.62,3.69,6.29,0.36,2.29,10.33,1,5.55,
2251917583.42299,Landing burn,4,109,-456,13.46,0.61,3.65,6.54,0.1,1.65,7.84,1,5.53,
2251917583.50299,Landing burn,4,108,-452,13.46,0.6,3.63,6.78,-0.16,0.78,4.55,1,5.52,
2251917583.58299,Landing burn,4,107,-448,13.46,0.59,3.59,7.08,-0.36,-0.1,0.98,1,5.51,
2251917583.64299,Landing burn,4,106,-445,13.46,0.59,3.55,7.44,-0.56,-0.77,-2.8,1,5.49,
2251917583.72299,Landing burn,4,106,-441,13.47,0.58,3.52,7.8,-0.69,-1.63,-5.48,1,5.48,
2251917583.80299,Landing burn,4,105,-436,13.47,0.57,3.49,8.13,-0.75,-2.44,-8.48,1,5.47,
2251917583.86299,Landing burn,4,104,-432,13.48,0.56,3.45,8.5,-0.78,-3,-10.82,1,5.45,
2251917583.94299,Landing burn,3,103,-429,13.48,0.56,3.42,8.89,-0.78,-3.67,-12.3,1,5.44,
2251917584.02299,Landing burn,3,102,-425,13.48,0.55,3.39,9.26,-0.73,-4.23,-14.11,1,5.43,
2251917584.10299,Landing burn,3,101,-421,13.48,0.54,3.36,9.72,-0.64,-4.7,-16.08,1,5.41,
2251917584.16299,Landing burn,3,100,-418,13.49,0.53,3.32,10.14,-0.47,-5,-18.02,1,5.4,
2251917584.24299,Landing burn,3,99,-414,13.49,0.53,3.3,10.54,-0.27,-5.24,-19.06,1,5.39,
2251917584.32299,Landing burn,3,99,-410,13.5,0.52,3.26,10.95,-0.13,-5.31,-19.52,1,5.37,
2251917584.38299,Landing burn,3,98,-406,13.51,0.51,3.23,11.46,0.02,-5.28,-18.9,1,5.36,
2251917584.46299,Landing burn,3,97,-404,13.52,0.51,3.2,12.06,0.1,-5.19,-17.95,1,5.35,
2251917584.54299,Landing burn,3,96,-400,13.52,0.5,3.17,12.55,0.16,-5.05,-16.59,1,5.33,
2251917584.60299,Landing burn,3,95,-396,13.53,0.49,3.14,13.1,0.22,-4.92,-15.63,1,5.32,
2251917584.68299,Landing burn,3,95,-393,13.54,0.49,3.11,13.69,0.35,-4.69,-15.24,1,5.31,
2251917584.76299,Landing burn,3,94,-389,13.54,0.48,3.08,14.19,0.45,-4.4,-14.73,1,5.29,
2251917584.84299,Landing burn,3,93,-385,13.54,0.47,3.05,14.72,0.48,-4.06,-13.63,1,5.28,
2251917584.90299,Landing burn,3,92,-383,13.54,0.46,3.02,15.31,0.44,-3.78,-11.69,1,5.27,
2251917584.98299,Landing burn,3,91,-379,13.54,0.46,3,15.88,0.34,-3.36,-10.08,1,5.26,
2251917585.06299,Landing burn,3,90,-375,13.54,0.45,2.97,16.31,0.27,-2.89,-8.11,1,5.24,
2251917585.12299,Landing burn,3,90,-372,13.54,0.44,2.93,16.86,0.14,-2.51,-6.03,1,5.23,
2251917585.20299,Landing burn,3,89,-369,13.53,0.44,2.9,17.4,-0.02,-1.97,-4.21,1,5.22,
2251917585.28299,Landing burn,3,88,-365,13.54,0.43,2.88,17.87,-0.18,-1.39,-1.62,1,5.2,
2251917585.34299,Landing burn,3,87,-361,13.54,0.43,2.85,18.34,-0.28,-0.93,0.84,1,5.19,
2251917585.42299,Landing burn,3,86,-359,13.54,0.42,2.82,18.9,-0.39,-0.33,2.45,1,5.18,
2251917585.50299,Landing burn,3,85,-355,13.54,0.41,2.8,19.4,-0.47,0.24,4.45,1,5.16,
2251917585.58299,Landing burn,3,85,-351,13.54,0.41,2.77,19.86,-0.52,0.78,6.5,1,5.15,
2251917585.64299,Landing burn,3,84,-349,13.54,0.4,2.74,20.41,-0.55,1.18,8.71,1,5.14,
2251917585.72299,Landing burn,3,83,-345,13.54,0.4,2.72,20.98,-0.55,1.66,10.24,1,5.12,
2251917585.80299,Landing burn,3,82,-341,13.54,0.39,2.69,21.46,-0.54,2.06,11.81,1,5.11,
2251917585.86299,Landing burn,3,82,-338,13.54,0.39,2.67,21.89,-0.52,2.33,12.84,1,5.1,
2251917585.94299,Landing burn,3,81,-335,13.53,0.38,2.64,22.48,-0.49,2.63,13.39,1,5.09,
2251917586.02299,Landing burn,3,80,-331,13.53,0.37,2.62,22.99,-0.45,2.84,13.93,1,5.07,
2251917586.08299,Landing burn,3,79,-328,13.53,0.37,2.59,23.41,-0.39,2.95,14.55,1,5.06,
2251917586.16299,Landing burn,3,78,-325,13.53,0.37,2.57,23.98,-0.29,3.07,15.13,1,5.05,
2251917586.24299,Landing burn,3,77,-322,13.54,0.36,2.55,24.59,-0.16,3.1,15.73,1,5.03,
2251917586.30299,Landing burn,3,77,-318,13.54,0.35,2.52,25.14,-0.07,2.99,15.68,1,5.02,
2251917586.38299,Landing burn,3,76,-316,13.55,0.35,2.49,25.68,0.04,2.84,15.1,1,5,
2251917586.46299,Landing burn,3,75,-312,13.55,0.34,2.47,26.2,0.12,2.66,13.92,1,4.99,
2251917586.54299,Landing burn,3,74,-309,13.54,0.34,2.45,26.61,0.16,2.47,12.77,1,4.98,
2251917586.60299,Landing burn,3,74,-306,13.55,0.33,2.42,27.17,0.23,2.33,11.97,1,4.96,
2251917586.68299,Landing burn,2,73,-303,13.55,0.33,2.41,27.76,0.31,2.12,11.34,1,4.95,
2251917586.76299,Landing burn,2,72,-300,13.55,0.32,2.38,28.22,0.35,1.91,10.31,1,4.94,
2251917586.82299,Landing burn,2,72,-298,13.55,0.32,2.36,28.85,0.39,1.74,9.29,1,4.93,
2251917586.90299,Landing burn,2,71,-295,13.55,0.32,2.34,29.53,0.41,1.5,8.59,1,4.92,
2251917586.98299,Landing burn,2,70,-292,13.55,0.31,2.31,30.18,0.4,1.25,7.6,1,4.9,
