Time,Phase,Altitude,Horizontal speed,Vertical speed,Retro to Zenith,Surface distance,Pad distance,Pad bearing,Pitch ang,Yaw ang,Roll ang,Throttle,
2251917192.94336,Ascent,0,0,0,174.87,0.16,0.18,-23.41,153.99,-171.24,174.21,0,
2251917193.00336,Ascent,0,0,0,173.95,0.16,0.18,-177.17,153.42,164.71,174.2,0,
2251917193.06336,Ascent,0,0,0,169.87,0.16,0.18,-173.01,159.37,-171.59,174.13,0,
2251917193.12336,Ascent,0,0,0,164.07,0.16,0.18,166.81,-172.65,-165.71,174.1,0,
2251917193.18336,Ascent,0,0,0,30.78,0.16,0.18,-150.65,-20.74,24.68,173.39,0,
2251917193.26336,Ascent,0,0,0,155.33,0.16,0.18,-76.81,157.89,167.91,174.16,0,
2251917193.32336,Ascent,0,0,0,148.57,0.16,0.18,-28.99,148.63,177.83,174.12,0,
2251917193.38336,Ascent,0,0,0,169.51,0.16,0.18,82.65,161.13,175.47,174.32,0,
2251917193.44336,Ascent,0,0,0,163.39,0.16,0.18,56.03,176.92,-166.75,173.89,0,
2251917193.50336,Ascent,0,0,0,154.14,0.16,0.18,132.46,-177.53,156.06,173.83,0,
2251917193.56336,Ascent,0,0,0,33.15,0.16,0.18,-109.27,176.28,16.73,173.59,0,
2251917193.62336,Ascent,0,0,0,161.17,0.16,0.18,41.46,161.18,-179.57,173.9,0,
2251917193.68336,Ascent,0,0,0,170.26,0.16,0.18,36.01,-170.29,179.1,173.88,0,
2251917193.76336,Ascent,0,0,0,163.86,0.16,0.18,166.15,169.07,-167.84,174.15,1,
2251917193.82336,Ascent,0,0,0,148.53,0.16,0.18,130.92,-176.01,-175.97,173.89,1,
2251917193.88336,Ascent,0,0,0,160.72,0.16,0.18,-73.99,-141.47,178.74,174.32,1,
2251917193.94336,Ascent,0,0,0,167.48,0.16,0.18,129.1,56.79,76.78,173.89,1,
2251917194.00336,Ascent,0,0,0,157.82,0.16,0.18,115.9,152.69,158.7,173.86,1,
2251917194.06336,Ascent,0,0,0,173.52,0.16,0.18,129.08,86.84,-175.53,173.98,1,
2251917194.12336,Ascent,0,0,0,176.51,0.16,0.18,97.86,177.07,178.12,174.23,1,
2251917194.20336,Ascent,0,0,0,158.55,0.16,0.18,129.87,166.33,-162.86,173.9,1,
2251917194.26336,Ascent,0,0,0,174.91,0.16,0.18,-36.09,-178.57,-175.11,173.97,1,
2251917194.32336,Ascent,0,0,0,90.84,0.16,0.18,-152.92,177.19,-168.7,174.13,1,
2251917194.38336,Ascent,0,0,0,129.67,0.16,0.18,-164.57,174.92,-169.14,174.04,1,
2251917194.44336,Ascent,0,0,0,152.74,0.16,0.18,-131.64,167.39,-167.86,174.15,1,
2251917194.50336,Ascent,0,0,0,71.07,0.16,0.18,-119.89,176.81,70.44,173.89,1,
2251917194.56336,Ascent,0,0,0,153.96,0.16,0.18,-126.08,156.03,-168.54,174.25,1,
2251917194.62336,Ascent,0,0,0,111.08,0.16,0.18,-58.7,126.18,114.4,174.04,1,
2251917194.70336,Ascent,0,0,0,156.56,0.16,0.18,35.5,158.28,-170.31,174.31,1,
2251917194.76336,Ascent,0,0,0,157.1,0.16,0.18,-113.52,157.8,173.8,174.16,1,
2251917194.82336,Ascent,0,0,0,145.03,0.16,0.18,-136.62,155.38,174.76,174.26,1,
2251917194.88336,Ascent,0,0,0,168,0.16,0.18,134.39,155.56,163.42,173.88,1,
2251917194.94336,Ascent,0,0,0,173.36,0.16,0.18,92.77,141.39,166.14,173.98,1,
2251917195.00336,Ascent,0,0,0,163.5,0.16,0.18,68.24,129.37,-169.63,173.89,1,
2251917195.06336,Ascent,0,0,0,160.51,0.16,0.18,123.18,161.96,-172.14,174.03,1,
2251917195.12336,Ascent,0,0,0,175.19,0.16,0.18,138.86,177.45,-175.92,174.04,1,
2251917195.20336,Ascent,0,0,0,144.58,0.16,0.18,140.33,-154.99,151.76,174.02,1,
2251917195.26336,Ascent,0,0,0,172.4,0.16,0.18,103.84,173.1,176.79,173.97,1,
2251917195.32336,Ascent,0,0,0,163.95,0.16,0.18,118.72,-179.01,168.46,173.83,1,
2251917195.38336,Ascent,0,0,0,167.79,0.16,0.18,47.05,179.24,178.99,173.91,1,
2251917195.44336,Ascent,0,0,0,169.18,0.16,0.18,-45.46,-178.16,172.95,173.97,1,
2251917195.50336,Ascent,0,0,0,169.53,0.16,0.18,33.81,-174.48,-169.76,174.17,1,
2251917195.56336,Ascent,0,0,0,157.74,0.16,0.18,158.22,-163.23,-164.5,173.85,1,
2251917195.64336,Ascent,0,0,0,123.55,0.16,0.18,112.96,-123.79,-168.53,173.87,1,
2251917195.70336,Ascent,0,0,0,173.06,0.16,0.18,96.63,-173.63,-177.22,173.99,1,
2251917195.76336,Ascent,0,0,0,149.75,0.16,0.18,21.06,170.34,-175.84,173.88,1,
2251917195.82336,Ascent,0,0,0,21.48,0.16,0.18,76.12,176.17,-172.71,173.6,1,
2251917195.88336,Ascent,0,0,0,151.04,0.16,0.18,-113.66,176.42,169.45,174.17,1,
2251917195.94336,Ascent,0,0,0,154.66,0.16,0.18,22.15,-179.34,171.35,174.29,1,
2251917196.00336,Ascent,0,0,0,27.18,0.16,0.18,148.32,12.14,25.01,173.43,1,
2251917196.06336,Ascent,0,0,0,34,0.16,0.18,119.39,-28.77,21.39,173.54,1,
2251917196.14336,Ascent,0,0,0,174.31,0.16,0.18,115.41,-175.44,176.57,174.01,1,
2251917196.20336,Ascent,0,0,0,172.95,0.16,0.18,101.52,174.05,-171.88,174.1,1,
2251917196.26336,Ascent,0,0,0,24.16,0.16,0.18,162.65,-178.88,178.26,173.26,1,
2251917196.32336,Ascent,0,0,0,172.33,0.16,0.18,19.23,165.31,-172.8,174,1,
2251917196.38336,Ascent,0,0,0,146.56,0.16,0.18,-143.76,-25.9,174.71,174.01,1,
2251917196.44336,Ascent,0,0,0,129.85,0.16,0.18,-10.04,173.5,137.6,174.01,1,
2251917196.50336,Ascent,0,0,0,153.83,0.16,0.18,128.89,155.97,-168.33,174,1,
2251917196.58336,Ascent,0,0,0,174.46,0.16,0.18,106.05,177.97,-174.84,174.02,1,
2251917196.64336,Ascent,0,0,0,169.01,0.16,0.18,-116.43,-173.89,-170.8,174.11,1,
2251917196.70336,Ascent,0,0,0,166.15,0.16,0.18,-79.69,-174.13,-170.63,173.86,1,
2251917196.76336,Ascent,0,0,0,150.87,0.16,0.18,-95.21,-167.04,-162.89,173.62,1,
2251917196.82336,Ascent,0,0,0,145.49,0.16,0.18,-100.48,-157.36,-151.33,173.36,1,
2251917196.88336,Ascent,0,0,0,140.08,0.16,0.18,-104.98,-168.65,-141.06,172.7,1,
2251917196.94336,Ascent,0,0,0,145.09,0.16,0.18,-107.73,-170.34,-145.65,172.6,1,
2251917197.00336,Ascent,0,0,0,145.51,0.16,0.18,-105.72,-168.36,-146.75,172.39,1,
2251917197.08336,Ascent,0,0,0,140.13,0.16,0.18,-101.96,-162.7,-142.21,172.14,1,
2251917197.14336,Ascent,0,0,0,141.2,0.16,0.18,-110.96,-169.35,-141.98,172.18,1,
2251917197.20336,Ascent,0,0,0,143.84,0.16,0.18,-103.64,-174.16,-139.65,172.03,1,
2251917197.26336,Ascent,0,0,0,140.59,0.16,0.18,-100.69,-175.33,-138.57,171.57,1,
2251917197.32336,Ascent,0,0,0,122.06,0.16,0.18,-117.83,-176.04,-143.83,171.25,1,
2251917197.38336,Ascent,0,0,0,118.42,0.16,0.18,-92.57,-179.63,-119.24,171.21,1,
2251917197.44336,Ascent,0,0,0,132.25,0.16,0.18,-108.79,-155.64,-132.88,171.23,1,
2251917197.50336,Ascent,0,0,0,138.06,0.16,0.18,-63.89,173.87,-138.27,171.14,1,
2251917197.56336,Ascent,0,0,0,140.45,0.16,0.18,8.31,-170.6,-141.03,170.84,1,
2251917197.64336,Ascent,0,0,0,156.46,0.16,0.18,-116.02,176.3,-156.7,171.12,1,
2251917197.70336,Ascent,0,0,0,24.48,0.16,0.18,-25.23,2.25,24.4,170.61,1,
2251917197.76336,Ascent,0,0,0,19.24,0.16,0.18,95.07,134.54,166.1,170.97,1,
2251917197.82336,Ascent,0,0,0,30.04,0.16,0.18,157.7,163.87,-167.79,170.55,1,
2251917197.88336,Ascent,0,0,0,25.86,0.16,0.18,121.02,165.31,22.06,170.38,1,
2251917197.94336,Ascent,0,0,0,166.73,0.16,0.18,54.63,176.64,167.13,171,1,
2251917198.00336,Ascent,0,0,0,171.68,0.16,0.18,75.06,-178.06,171.9,170.99,1,
2251917198.08336,Ascent,0,0,0,119.84,0.16,0.18,128.09,124.26,136.82,171.06,1,
2251917198.14336,Ascent,0,0,0,58.96,0.16,0.18,23.86,53.35,44.36,170.79,1,
2251917198.20336,Ascent,0,0,0,102.4,0.16,0.18,41.38,41.18,47.15,170.58,1,
2251917198.26336,Ascent,0,0,0,140.74,0.16,0.18,121.53,60.86,41.66,170.99,1,
2251917198.32336,Ascent,0,0,0,81.64,0.16,0.18,90.89,70.62,81.52,170.88,1,
2251917198.38336,Ascent,0,0,0,158.77,0.16,0.18,106.53,24.44,170.89,171.08,1,
2251917198.44336,Ascent,0,0,0,87.56,0.16,0.18,90.15,86.95,85.96,171,1,
2251917198.52336,Ascent,0,0,0,91.34,0.16,0.18,96.78,92,91.81,170.83,1,
2251917198.58336,Ascent,0,0,0,32.57,0.16,0.18,110.29,1.87,32.54,170.35,1,
2251917198.64336,Ascent,0,0,0,46.08,0.16,0.18,101.65,-12.01,36.97,170.55,1,
2251917198.70336,Ascent,0,0,0,31.88,0.16,0.18,103.6,150.8,124.4,170.58,1,
2251917198.76336,Ascent,0,0,0,31.56,0.16,0.18,52.86,151.84,31.56,170.39,1,
2251917198.82336,Ascent,0,0,0,52.25,0.16,0.18,52.24,-5.43,52.26,170.54,1,
2251917198.88336,Ascent,0,0,0,119.74,0.16,0.18,73.79,-179.83,119.74,170.96,1,
2251917198.96336,Ascent,0,0,0,55.2,0.16,0.18,41.92,-6.56,55.11,170.8,1,
2251917199.02336,Ascent,0,0,0,107.81,0.16,0.18,59.64,109,131.81,170.81,1,
2251917199.08336,Ascent,0,0,0,149.7,0.16,0.18,88.21,71.53,74.89,170.87,1,
2251917199.14336,Ascent,0,0,0,30.02,0.16,0.18,51.62,171.3,172.67,170.51,1,
2251917199.20336,Ascent,0,0,0,100.54,0.16,0.18,141.14,-8.29,105.79,170.93,1,
2251917199.26336,Ascent,0,0,0,42.01,0.16,0.18,101.54,148.99,35.83,170.82,1,
2251917199.32336,Ascent,0,0,0,101.98,0.16,0.18,116.11,104.28,111.09,171.12,1,
2251917199.40336,Ascent,0,0,0,35.71,0.16,0.18,87.26,3.02,35.64,170.66,1,
2251917199.46336,Ascent,0,0,0,116.65,0.16,0.18,46.73,126.19,124.61,170.9,1,
2251917199.52336,Ascent,0,0,0,42.06,0.16,0.18,64.67,29.6,36.26,170.58,1,
2251917199.58336,Ascent,0,0,0,148.28,0.16,0.18,40.92,38.38,43.25,170.99,1,
2251917199.64336,Ascent,0,0,0,49.5,0.16,0.18,52.31,-19.07,42.55,170.66,1,
2251917199.70336,Ascent,0,0,0,66.43,0.16,0.18,-128.19,-5.08,62.36,170.7,1,
2251917199.76336,Ascent,0,0,0,175.5,0.16,0.18,-128.35,179.25,-175.57,161.48,1,
2251917199.82336,Ascent,0,0,0,175.66,0.16,0.18,-128.83,179.25,-175.72,145.15,1,
2251917199.90336,Ascent,0,0,0,175.92,0.16,0.18,-129.73,179.25,-175.98,129.79,1,
2251917199.96336,Ascent,0,0,1,176.24,0.16,0.18,-131.04,179.25,-176.3,118.53,1,
2251917200.02336,Ascent,0,0,1,176.71,0.16,0.18,-132.92,179.23,-176.66,111.26,1,
2251917200.08336,Ascent,0,0,1,177.08,0.16,0.18,-135.39,179.21,-177.04,105.3,1,
2251917200.14336,Ascent,0,0,1,177.46,0.16,0.18,-139.81,179.19,-177.43,102.28,1,
2251917200.20336,Ascent,0,0,1,177.82,0.16,0.18,-144.33,179.17,-177.94,99.99,1,
2251917200.26336,Ascent,0,0,1,178.16,0.16,0.18,-150.33,179.16,-178.32,98.31,1,
2251917200.32336,Ascent,0,0,1,178.47,0.16,0.18,-158.47,179.14,-178.67,97.22,1,
2251917200.38336,Ascent,0,0,1,178.73,0.16,0.18,-169.53,179.14,-179.01,96.24,1,
2251917200.46336,Ascent,0,0,1,178.94,0.16,0.18,176.04,179.14,-179.33,95.5,1,
2251917200.52336,Ascent,0,0,2,179.08,0.16,0.18,159.13,179.14,-179.62,94.79,1,
2251917200.58336,Ascent,0,0,2,179.13,0.16,0.18,142.37,179.14,-179.89,94.24,1,
2251917200.64336,Ascent,0,0,2,179.09,0.16,0.18,124.41,179.14,179.87,93.68,1,
2251917200.70336,Ascent,0,0,2,179,0.16,0.18,114.81,179.14,179.65,93.3,1,
2251917200.76336,Ascent,0,0,2,178.9,0.16,0.18,107.85,179.15,179.39,92.97,1,
2251917200.82336,Ascent,0,0,2,178.79,0.16,0.18,102.78,179.16,179.23,92.71,1,
2251917200.88336,Ascent,0,0,2,178.69,0.16,0.18,99.03,179.16,179.09,92.46,1,
2251917200.96336,Ascent,0,0,2,178.6,0.16,0.18,96.23,179.17,178.97,92.21,1,
2251917201.02336,Ascent,0,0,2,178.5,0.16,0.18,94.11,179.18,178.86,92.03,1,
2251917201.08336,Ascent,0,0,3,178.43,0.16,0.18,92.5,179.18,178.78,91.78,1,
2251917201.14336,Ascent,0,0,3,178.39,0.16,0.18,90.98,179.19,178.71,91.56,1,
2251917201.20336,Ascent,0,0,3,178.35,0.16,0.18,90.19,179.19,178.64,91.41,1,
2251917201.26336,Ascent,0,0,3,178.33,0.16,0.18,89.63,179.2,178.61,91.23,1,
2251917201.32336,Ascent,0,0,3,178.31,0.16,0.18,89.28,179.21,178.58,91.09,1,
2251917201.40336,Ascent,0,0,3,178.31,0.16,0.18,89.09,179.21,178.57,90.94,1,
2251917201.46336,Ascent,0,0,3,178.31,0.16,0.18,89.05,179.22,178.57,90.84,1,
2251917201.52336,Ascent,0,0,3,178.33,0.16,0.18,89.14,179.23,178.57,90.72,1,
2251917201.58335,Ascent,0,0,3,178.35,0.16,0.18,89.44,179.23,178.59,90.54,1,
2251917201.64335,Ascent,0,0,4,178.38,0.16,0.18,89.76,179.23,178.61,90.46,1,
2251917201.70335,Ascent,0,0,4,178.4,0.16,0.18,90.19,179.24,178.64,90.33,1,
2251917201.76335,Ascent,0,0,4,178.43,0.16,0.18,90.68,179.24,178.67,90.21,1,
2251917201.84335,Ascent,0,0,4,178.47,0.16,0.18,91.23,179.25,178.7,90.13,1,
2251917201.90335,Ascent,0,0,4,178.5,0.16,0.18,91.84,179.25,178.73,90.09,1,
2251917201.96335,Ascent,0,0,4,178.55,0.16,0.18,92.49,179.25,178.76,90.12,1,
2251917202.02335,Ascent,0,0,4,178.58,0.16,0.18,93.41,179.26,178.8,90.11,1,
2251917202.08335,Ascent,0,0,4,178.61,0.16,0.18,94.12,179.26,178.84,89.63,1,
2251917202.14335,Ascent,0,0,5,178.64,0.16,0.18,94.83,179.26,178.87,89.94,1,
2251917202.20335,Ascent,0,0,5,178.67,0.16,0.18,95.55,179.26,178.9,89.95,1,
2251917202.28335,Ascent,0,0,5,178.7,0.16,0.18,96.26,179.27,178.93,90.07,1,
2251917202.34335,Ascent,0,0,5,178.72,0.16,0.18,96.95,179.27,178.96,90.05,1,
2251917202.40335,Ascent,0,0,5,178.75,0.16,0.18,97.62,179.27,178.98,91.03,1,
2251917202.46335,Ascent,0,0,5,178.77,0.16,0.18,98.47,179.27,179.01,92.79,1,
2251917202.52335,Ascent,0,0,5,178.79,0.16,0.18,99.07,179.27,179.04,120.81,1,
2251917202.58335,Ascent,0,0,5,178.81,0.16,0.18,99.63,179.27,179.06,-95.13,1,
2251917202.64335,Ascent,0,0,6,178.82,0.16,0.18,100.15,179.27,179.07,-91.78,1,
2251917202.72335,Ascent,0,0,6,178.84,0.16,0.18,100.63,179.27,179.09,-92.71,1,
2251917202.78335,Ascent,0,0,6,178.85,0.16,0.18,101.07,179.27,179.11,-90.66,1,
2251917202.84335,Ascent,0,0,6,178.86,0.16,0.18,101.47,179.27,179.12,-90.97,1,
2251917202.90335,Ascent,0,0,6,178.87,0.16,0.18,101.94,179.27,179.13,-90.54,1,
2251917202.96335,Ascent,0,0,6,178.88,0.16,0.18,102.26,179.27,179.15,-90.72,1,
2251917203.02335,Ascent,0,0,6,178.89,0.16,0.18,102.54,179.27,179.16,-90.36,1,
2251917203.08335,Ascent,0,0,6,178.9,0.16,0.18,102.78,179.28,179.16,-90.32,1,
2251917203.16335,Ascent,0,0,6,178.9,0.16,0.18,103,179.28,179.17,-90.08,1,
2251917203.22335,Ascent,0,0,7,178.91,0.16,0.18,103.18,179.28,179.18,-89.49,1,
2251917203.28335,Ascent,0,0,7,178.92,0.16,0.18,103.33,179.28,179.19,-89.53,1,
2251917203.34335,Ascent,0,0,7,178.92,0.16,0.18,103.51,179.28,179.19,-88.58,1,
2251917203.40335,Ascent,0,0,7,178.92,0.16,0.18,103.61,179.28,179.2,-88.18,1,
2251917203.46335,Ascent,0,0,7,178.93,0.16,0.18,103.71,179.28,179.2,-88.28,1,
2251917203.52335,Ascent,0,0,7,178.93,0.16,0.18,103.77,179.28,179.2,-87.05,1,
2251917203.60335,Ascent,0,0,7,178.93,0.16,0.18,103.84,179.28,179.21,-86.29,1,
2251917203.66335,Ascent,0,0,7,178.94,0.16,0.18,103.89,179.28,179.21,-85.77,1,
2251917203.72335,Ascent,0,0,8,178.94,0.16,0.18,103.94,179.28,179.21,-84.38,1,
2251917203.78335,Ascent,0,0,8,178.94,0.16,0.18,104,179.29,179.21,-84,1,
2251917203.84335,Ascent,0,0,8,178.94,0.16,0.18,104.04,179.29,179.22,-84.33,1,
2251917203.90335,Ascent,0,0,8,178.95,0.16,0.18,104.08,179.29,179.22,-83.72,1,
2251917203.96335,Ascent,0,0,8,178.95,0.16,0.18,104.12,179.29,179.22,-83.47,1,
2251917204.02335,Ascent,0,0,8,178.95,0.16,0.18,104.17,179.29,179.22,-83.99,1,
2251917204.10335,Ascent,0,0,8,178.95,0.16,0.18,104.22,179.29,179.23,-83.01,1,
2251917204.16335,Ascent,0,0,8,178.96,0.16,0.18,104.28,179.29,179.23,-84.15,1,
2251917204.22335,Ascent,0,0,9,178.96,0.16,0.19,104.34,179.29,179.23,-83.68,1,
2251917204.28335,Ascent,0,0,9,178.96,0.16,0.19,104.43,179.29,179.23,-83.87,1,
2251917204.34335,Ascent,0,0,9,178.97,0.16,0.19,104.49,179.29,179.24,-83.65,1,
2251917204.40335,Ascent,0,0,9,178.97,0.16,0.19,104.57,179.3,179.24,-83.85,1,
2251917204.46335,Ascent,0,0,9,178.97,0.16,0.19,104.65,179.3,179.24,-83.84,1,
2251917204.54335,Ascent,0,0,9,178.97,0.16,0.19,104.73,179.3,179.24,-84.37,1,
2251917204.60335,Ascent,0,0,9,178.98,0.16,0.19,104.82,179.3,179.25,-84.73,1,
2251917204.66335,Ascent,0,0,9,178.98,0.16,0.19,104.91,179.3,179.25,-84.43,1,
2251917204.72335,Ascent,0,0,10,178.98,0.16,0.19,105.04,179.3,179.25,-84.8,1,
2251917204.78335,Ascent,0,0,10,178.99,0.16,0.19,105.13,179.3,179.26,-84.35,1,
2251917204.84335,Ascent,0,0,10,178.99,0.16,0.19,105.23,179.3,179.26,-84.84,1,
2251917204.90335,Ascent,0,0,10,178.99,0.16,0.19,105.33,179.3,179.26,-85.35,1,
2251917204.98335,Ascent,0,0,10,179,0.16,0.19,105.43,179.31,179.27,-84.92,1,
2251917205.04335,Ascent,0,0,10,179,0.16,0.19,105.53,179.31,179.27,-85.31,1,
2251917205.10335,Ascent,0,0,10,179,0.16,0.19,105.62,179.31,179.27,-85.14,1,
2251917205.16335,Ascent,0,0,10,179.01,0.16,0.19,105.76,179.31,179.27,-85.52,1,
2251917205.22335,Ascent,0,0,11,179.01,0.16,0.19,105.85,179.31,179.28,-85.6,1,
2251917205.28335,Ascent,0,0,11,179.01,0.16,0.19,105.95,179.31,179.28,-86.03,1,
2251917205.34335,Ascent,0,0,11,179.02,0.16,0.19,106.04,179.31,179.28,-85.76,1,
2251917205.42335,Ascent,0,0,11,179.02,0.16,0.19,106.13,179.31,179.29,-85.59,1,
2251917205.48335,Ascent,0,0,11,179.02,0.16,0.19,106.23,179.31,179.29,-86.18,1,
2251917205.54335,Ascent,0,0,11,179.02,0.16,0.19,106.31,179.31,179.29,-86.38,1,
2251917205.60335,Ascent,0,0,11,179.03,0.16,0.19,106.54,179.31,179.3,-86.65,1,
2251917205.66335,Ascent,0,0,11,179.03,0.16,0.19,107.27,179.32,179.31,-80.65,1,
2251917205.72335,Ascent,0,0,12,179.04,0.16,0.19,108.95,179.31,179.33,-80.63,1,
2251917205.78335,Ascent,0,0,12,179.05,0.16,0.19,111.15,179.29,179.36,-75.7,1,
2251917205.86335,Ascent,0,0,12,179.06,0.16,0.19,113.44,179.27,179.39,-63.03,1,
2251917205.92335,Ascent,0,0,12,179.06,0.16,0.19,115.61,179.25,179.43,-31.47,1,
2251917205.98335,Ascent,0,0,12,179.07,0.16,0.19,117.59,179.23,179.46,11.29,1,
2251917206.04335,Ascent,0,0,12,179.07,0.16,0.19,119.79,179.21,179.5,38.86,1,
2251917206.10335,Ascent,0,0,12,179.07,0.16,0.2,121.05,179.19,179.54,47.59,1,
2251917206.16335,Ascent,0,0,12,179.07,0.16,0.2,121.96,179.17,179.56,52.12,1,
2251917206.22335,Ascent,0,0,13,179.06,0.16,0.2,122.53,179.16,179.59,54.53,1,
2251917206.30335,Ascent,0,0,13,179.06,0.16,0.2,122.74,179.15,179.6,56.07,1,
2251917206.36335,Ascent,0,0,13,179.06,0.16,0.2,122.63,179.14,179.62,57.24,1,
2251917206.42335,Ascent,0,0,13,179.06,0.16,0.2,122.21,179.13,179.63,58.22,1,
2251917206.48335,Ascent,0,0,13,179.06,0.16,0.2,121.23,179.13,179.63,59.28,1,
2251917206.54335,Ascent,0,0,13,179.06,0.16,0.2,120.22,179.13,179.64,59.91,1,
2251917206.60335,Ascent,0,0,13,179.06,0.16,0.2,119.02,179.13,179.63,60.48,1,
2251917206.66335,Ascent,0,0,14,179.06,0.16,0.2,117.66,179.13,179.62,61.09,1,
2251917206.74335,Ascent,0,0,14,179.06,0.16,0.2,116.18,179.14,179.61,61.66,1,
2251917206.80335,Ascent,0,0,14,179.06,0.16,0.2,114.62,179.14,179.6,62.18,1,
2251917206.86335,Ascent,0,0,14,179.05,0.16,0.2,113.01,179.15,179.59,62.76,1,
2251917206.92335,Ascent,0,0,14,179.05,0.16,0.2,110.85,179.16,179.58,63.48,1,
2251917206.98335,Ascent,0,0,14,179.04,0.16,0.2,109.25,179.16,179.56,64,1,
2251917207.04335,Ascent,0,0,14,179.04,0.16,0.2,107.69,179.17,179.54,64.55,1,
2251917207.10335,Ascent,0,0,14,179.03,0.16,0.2,106.22,179.17,179.53,65.13,1,
2251917207.16335,Ascent,0,0,15,179.02,0.16,0.2,104.83,179.18,179.51,65.72,1,
2251917207.24335,Ascent,0,0,15,179.02,0.16,0.2,103.55,179.18,179.5,66.3,1,
2251917207.30335,Ascent,0,0,15,179.01,0.16,0.2,102.37,179.19,179.48,66.88,1,
2251917207.36335,Ascent,0,0,15,179,0.16,0.21,101.32,179.19,179.47,67.68,1,
2251917207.42335,Ascent,0,0,15,178.99,0.16,0.21,100.11,179.19,179.46,68.26,1,
2251917207.48335,Ascent,0,0,15,178.99,0.16,0.21,99.35,179.19,179.44,68.89,1,
2251917207.54335,Ascent,0,0,15,178.98,0.16,0.21,98.71,179.19,179.44,69.48,1,
2251917207.60335,Ascent,0,0,15,178.98,0.16,0.21,98.17,179.19,179.43,70,1,
2251917207.68335,Ascent,0,0,16,178.97,0.16,0.21,97.2,179.18,179.42,70.54,1,
2251917207.74335,Ascent,0,0,16,178.97,0.16,0.21,95.36,179.19,179.41,71.14,1,
2251917207.80335,Ascent,0,0,16,178.95,0.16,0.21,93.21,179.2,179.37,71.77,1,
2251917207.86335,Ascent,0,0,16,178.94,0.16,0.21,91.16,179.21,179.34,74.46,1,
2251917207.92335,Ascent,0,0,16,178.94,0.16,0.21,90.06,179.22,179.31,78.23,1,
2251917207.98335,Ascent,0,0,16,178.95,0.16,0.21,89.05,179.24,179.3,82.46,1,
2251917208.04335,Ascent,0,0,16,178.96,0.16,0.21,88.22,179.25,179.29,91.14,1,
2251917208.12335,Ascent,0,0,16,178.97,0.16,0.21,87.63,179.27,179.29,141.22,1,
2251917208.18335,Ascent,0,0,17,178.99,0.16,0.21,87.3,179.29,179.29,-149.3,1,
2251917208.24335,Ascent,0,0,17,179.02,0.16,0.21,87.21,179.3,179.3,-134.3,1,
2251917208.30335,Ascent,0,0,17,179.04,0.16,0.21,87.52,179.31,179.31,-128.95,1,
2251917208.36335,Ascent,0,0,17,179.05,0.16,0.22,88.09,179.32,179.33,-127.64,1,
2251917208.42335,Ascent,0,0,17,179.07,0.16,0.22,88.91,179.34,179.34,-127.13,1,
2251917208.48335,Ascent,0,0,17,179.09,0.16,0.22,90.04,179.34,179.36,-127.1,1,
2251917208.56335,Ascent,0,0,17,179.1,0.16,0.22,91.72,179.34,179.38,-127.32,1,
2251917208.62335,Ascent,0,0,18,179.12,0.16,0.22,93.81,179.34,179.42,-127.77,1,
2251917208.68335,Ascent,0,0,18,179.14,0.16,0.22,96.16,179.34,179.45,-128.55,1,
2251917208.74335,Ascent,0,0,18,179.15,0.16,0.22,99.46,179.34,179.49,-129.85,1,
2251917208.80335,Ascent,0,0,18,179.16,0.16,0.22,101.92,179.33,179.54,-131.04,1,
2251917208.86335,Ascent,0,0,18,179.16,0.16,0.22,104.26,179.32,179.58,-132.4,1,
2251917208.92335,Ascent,0,0,18,179.15,0.16,0.22,106.38,179.3,179.62,-133.84,1,
2251917209.00335,Ascent,0,0,18,179.14,0.16,0.22,108.24,179.28,179.65,-135.3,1,
2251917209.06335,Ascent,0,0,18,179.12,0.16,0.22,109.81,179.26,179.68,-136.74,1,
2251917209.12335,Ascent,0,0,19,179.1,0.16,0.22,111.13,179.24,179.71,-138.19,1,
2251917209.18335,Ascent,0,0,19,179.07,0.16,0.23,112.46,179.21,179.73,-139.97,1,
2251917209.24335,Ascent,0,0,19,179.05,0.16,0.23,113.15,179.18,179.76,-141.14,1,
2251917209.30335,Ascent,0,0,19,179.02,0.16,0.23,113.6,179.15,179.78,-142.17,1,
2251917209.36335,Ascent,0,0,19,179,0.16,0.23,113.86,179.12,179.79,-143.03,1,
2251917209.44335,Ascent,0,0,19,178.98,0.16,0.23,113.95,179.09,179.81,-143.69,1,
2251917209.50335,Ascent,0,0,19,178.96,0.16,0.23,113.91,179.06,179.82,-144.12,1,
2251917209.56335,Ascent,0,0,20,178.94,0.16,0.23,113.69,179.04,179.82,-144.23,1,
2251917209.62335,Ascent,0,0,20,178.93,0.16,0.23,113.1,179.02,179.83,-143.8,1,
2251917209.68335,Ascent,0,0,20,178.92,0.16,0.23,112.56,179,179.83,-142.84,1,
2251917209.74335,Ascent,0,0,20,178.91,0.16,0.23,111.99,178.99,179.82,-141.18,1,
2251917209.80335,Ascent,0,0,20,178.91,0.16,0.23,111.42,178.97,179.82,-138.56,1,
2251917209.88335,Ascent,0,0,20,178.91,0.16,0.24,110.89,178.96,179.82,-134.71,1,
2251917209.94335,Ascent,0,0,20,178.91,0.16,0.24,110.4,178.96,179.81,-129.39,1,
2251917210.00335,Ascent,0,0,21,178.92,0.16,0.24,109.96,178.95,179.81,-122.31,1,
2251917210.06335,Ascent,0,0,21,178.93,0.16,0.24,109.45,178.95,179.81,-110.22,1,
2251917210.12335,Ascent,0,0,21,178.93,0.16,0.24,109.12,178.95,179.81,-99.54,1,
2251917210.18335,Ascent,0,0,21,178.95,0.16,0.24,108.85,178.96,179.81,-88.93,1,
2251917210.24335,Ascent,0,0,21,178.96,0.16,0.24,108.64,178.96,179.81,-78.96,1,
2251917210.30335,Ascent,0,0,21,178.97,0.16,0.24,108.47,178.97,179.81,-70.35,1,
2251917210.38335,Ascent,0,0,21,178.98,0.16,0.24,108.35,178.98,179.81,-63.71,1,
2251917210.44335,Ascent,0,0,22,179,0.16,0.24,108.27,178.99,179.81,-58.42,1,
2251917210.50335,Ascent,0,0,22,179.02,0.16,0.24,108.24,178.99,179.81,-53.39,1,
2251917210.56335,Ascent,0,0,22,179.03,0.16,0.25,108.24,179.01,179.82,-50.64,1,
2251917210.62335,Ascent,0,0,22,179.05,0.16,0.25,108.29,179.02,179.82,-48.55,1,
2251917210.68335,Ascent,0,0,22,179.06,0.16,0.25,108.37,179.03,179.83,-47.05,1,
2251917210.74335,Ascent,0,0,22,179.07,0.16,0.25,108.47,179.04,179.83,-45.98,1,
2251917210.82335,Ascent,0,0,22,179.09,0.16,0.25,108.58,179.05,179.84,-45.33,1,
2251917210.88335,Ascent,0,0,23,179.1,0.16,0.25,108.71,179.06,179.84,-45,1,
2251917210.94335,Ascent,0,0,23,179.11,0.16,0.25,108.85,179.07,179.85,-44.62,1,
2251917211.00335,Ascent,0,0,23,179.12,0.16,0.25,109.03,179.08,179.86,-44.71,1,
2251917211.06335,Ascent,0,0,23,179.13,0.16,0.25,109.16,179.09,179.86,-44.92,1,
2251917211.12335,Ascent,0,0,23,179.14,0.16,0.26,109.29,179.1,179.87,-45.06,1,
2251917211.18335,Ascent,0,0,23,179.14,0.16,0.26,109.41,179.11,179.87,-45.68,1,
2251917211.26335,Ascent,0,0,23,179.15,0.16,0.26,109.52,179.12,179.88,-46.4,1,
2251917211.32335,Ascent,0,0,24,179.15,0.16,0.26,109.62,179.13,179.88,-47.12,1,
2251917211.38335,Ascent,0,0,24,179.16,0.16,0.26,109.7,179.13,179.89,-48.08,1,
2251917211.44335,Ascent,0,0,24,179.16,0.16,0.26,109.79,179.14,179.89,-49.52,1,
2251917211.50335,Ascent,0,0,24,179.16,0.16,0.26,109.85,179.14,179.89,-50.66,1,
2251917211.56335,Ascent,0,0,24,179.16,0.16,0.26,109.9,179.15,179.9,-51.94,1,
2251917211.62335,Ascent,0,0,24,179.16,0.16,0.26,109.94,179.15,179.9,-53.06,1,
2251917211.70335,Ascent,0,0,24,179.16,0.16,0.27,109.96,179.15,179.9,-53.93,1,
2251917211.76335,Ascent,0,0,25,179.16,0.16,0.27,109.98,179.15,179.91,-54.74,1,
2251917211.82335,Ascent,0,0,25,179.16,0.16,0.27,109.98,179.15,179.91,-54.88,1,
2251917211.88335,Ascent,0,0,25,179.16,0.16,0.27,109.97,179.15,179.91,-55.28,1,
2251917211.94335,Ascent,0,0,25,179.16,0.16,0.27,109.95,179.15,179.91,-54.72,1,
2251917212.00335,Ascent,0,0,25,179.16,0.16,0.27,109.92,179.15,179.91,-54.04,1,
2251917212.06335,Ascent,0,0,25,179.16,0.16,0.27,109.88,179.15,179.92,-52.99,1,
2251917212.14334,Ascent,0,0,26,179.16,0.16,0.27,109.83,179.15,179.92,-50.98,1,
2251917212.20334,Ascent,0,0,26,179.16,0.16,0.28,109.77,179.16,179.92,-48.79,1,
2251917212.26334,Ascent,0,0,26,179.16,0.16,0.28,109.71,179.16,179.92,-45.87,1,
2251917212.32334,Ascent,0,0,26,179.17,0.16,0.28,109.61,179.16,179.92,-42.27,1,
2251917212.38334,Ascent,0,0,26,179.17,0.16,0.28,109.53,179.16,179.92,-38.93,1,
2251917212.44334,Ascent,0,0,26,179.17,0.16,0.28,109.45,179.16,179.92,-35.18,1,
2251917212.50334,Ascent,0,0,26,179.17,0.16,0.28,109.36,179.16,179.92,-32.36,1,
2251917212.58334,Ascent,0,0,27,179.17,0.16,0.28,109.27,179.16,179.92,-28.63,1,
2251917212.64334,Ascent,0,0,27,179.17,0.16,0.29,109.19,179.17,179.92,-25.11,1,
2251917212.70334,Ascent,0,0,27,179.18,0.16,0.29,109.1,179.17,179.92,-22.33,1,
2251917212.76334,Ascent,0,0,27,179.18,0.16,0.29,108.99,179.17,179.92,-18.47,1,
2251917212.82334,Ascent,0,0,27,179.18,0.16,0.29,108.92,179.17,179.92,-15.98,1,
2251917212.88334,Ascent,0,0,27,179.18,0.16,0.29,108.85,179.17,179.92,-14.54,1,
2251917212.94334,Ascent,0,0,27,179.18,0.16,0.29,108.79,179.18,179.92,-11.25,1,
2251917213.02334,Ascent,0,0,28,179.19,0.16,0.29,108.73,179.18,179.92,-10.01,1,
2251917213.08334,Ascent,0,0,28,179.19,0.16,0.3,108.68,179.18,179.92,-9.41,1,
2251917213.14334,Ascent,0,0,28,179.19,0.16,0.3,108.64,179.18,179.92,-7.49,1,
2251917213.20334,Ascent,0,0,28,179.19,0.16,0.3,108.59,179.19,179.92,-6.56,1,
2251917213.26334,Ascent,0,0,28,179.2,0.16,0.3,108.57,179.19,179.92,-5.78,1,
2251917213.32334,Ascent,0,0,28,179.2,0.16,0.3,108.54,179.19,179.92,-4.02,1,
2251917213.38334,Ascent,0,0,28,179.2,0.16,0.3,108.52,179.2,179.92,-2.99,1,
2251917213.44334,Ascent,0,0,29,179.2,0.16,0.3,108.51,179.2,179.92,-1.57,1,
2251917213.52334,Ascent,0,0,29,179.2,0.16,0.31,108.49,179.2,179.92,-0.48,1,
2251917213.58334,Ascent,0,0,29,179.21,0.16,0.31,108.48,179.2,179.92,1.82,1,
2251917213.64334,Ascent,0,0,29,179.21,0.16,0.31,108.47,179.2,179.92,4.26,1,
2251917213.70334,Ascent,0,0,29,179.21,0.16,0.31,108.44,179.21,179.92,6.69,1,
2251917213.76334,Ascent,0,0,29,179.21,0.16,0.31,108.43,179.21,179.92,9.83,1,
2251917213.82334,Ascent,0,0,30,179.21,0.16,0.31,108.41,179.21,179.92,12.54,1,
2251917213.88334,Ascent,0,0,30,179.21,0.16,0.32,108.39,179.21,179.92,16.84,1,
2251917213.96334,Ascent,0,0,30,179.22,0.16,0.32,108.36,179.22,179.92,20.77,1,
2251917214.02334,Ascent,0,0,30,179.22,0.16,0.32,108.33,179.22,179.92,26.86,1,
2251917214.08334,Ascent,0,0,30,179.22,0.16,0.32,108.3,179.22,179.92,30.81,1,
2251917214.14334,Ascent,0,0,30,179.22,0.16,0.32,108.24,179.22,179.92,37.75,1,
2251917214.20334,Ascent,0,0,30,179.22,0.16,0.32,108.2,179.22,179.92,42.86,1,
2251917214.26334,Ascent,0,0,31,179.22,0.16,0.33,108.15,179.22,179.92,47.46,1,
2251917214.32334,Ascent,0,0,31,179.22,0.16,0.33,108.11,179.23,179.92,51.86,1,
2251917214.40334,Ascent,0,0,31,179.23,0.16,0.33,108.06,179.23,179.92,55.08,1,
2251917214.46334,Ascent,0,0,31,179.23,0.16,0.33,108.02,179.23,179.92,59.75,1,
2251917214.52334,Ascent,0,0,31,179.23,0.16,0.33,107.97,179.23,179.91,62.62,1,
2251917214.58334,Ascent,0,0,31,179.23,0.16,0.33,107.91,179.23,179.91,66.99,1,
2251917214.64334,Ascent,0,0,32,179.23,0.16,0.34,107.87,179.23,179.91,70.1,1,
2251917214.70334,Ascent,0,0,32,179.23,0.16,0.34,107.82,179.23,179.91,70.93,1,
2251917214.76334,Ascent,0,0,32,179.23,0.16,0.34,107.79,179.24,179.91,73.38,1,
2251917214.84334,Ascent,0,0,32,179.23,0.16,0.34,107.75,179.24,179.91,76.95,1,
2251917214.90334,Ascent,0,0,32,179.23,0.16,0.34,107.72,179.24,179.91,77.74,1,
2251917214.96334,Ascent,0,0,32,179.24,0.16,0.34,107.69,179.24,179.91,78.71,1,
2251917215.02334,Ascent,0,0,32,179.24,0.16,0.35,107.66,179.24,179.91,79.68,1,
2251917215.08334,Ascent,0,0,33,179.24,0.16,0.35,107.64,179.24,179.91,80.5,1,
2251917215.14334,Ascent,0,0,33,179.24,0.16,0.35,107.63,179.24,179.91,82.32,1,
2251917215.20334,Ascent,0,0,33,179.24,0.16,0.35,107.62,179.25,179.91,81.9,1,
2251917215.28334,Ascent,0,0,33,179.24,0.16,0.35,107.61,179.25,179.91,84.24,1,
2251917215.34334,Ascent,0,0,33,179.24,0.16,0.35,107.6,179.25,179.91,82.22,1,
2251917215.40334,Ascent,0,0,33,179.24,0.16,0.36,107.6,179.25,179.91,84.68,1,
2251917215.46334,Ascent,0,0,34,179.25,0.16,0.36,107.59,179.25,179.91,85.49,1,
2251917215.52334,Ascent,0,0,34,179.25,0.16,0.36,107.58,179.25,179.91,86.34,1,
2251917215.58334,Ascent,0,0,34,179.25,0.16,0.36,107.57,179.25,179.91,85.91,1,
2251917215.64334,Ascent,0,0,34,179.25,0.16,0.36,107.56,179.26,179.91,86.91,1,
2251917215.72334,Ascent,0,0,34,179.25,0.16,0.37,107.55,179.26,179.91,89.46,1,
2251917215.78334,Ascent,0,0,34,179.25,0.16,0.37,107.53,179.26,179.91,87.71,1,
2251917215.84334,Ascent,0,0,35,179.25,0.16,0.37,107.52,179.26,179.91,88.42,1,
2251917215.90334,Ascent,0,0,35,179.25,0.16,0.37,107.48,179.26,179.91,90.3,1,
2251917215.96334,Ascent,0,0,35,179.26,0.16,0.37,107.45,179.26,179.91,90.49,1,
2251917216.02334,Ascent,0,0,35,179.26,0.16,0.38,107.42,179.26,179.91,90.84,1,
2251917216.08334,Ascent,0,0,35,179.26,0.16,0.38,107.38,179.27,179.91,91.52,1,
2251917216.16334,Ascent,0,0,35,179.26,0.16,0.38,107.34,179.27,179.91,90.82,1,
2251917216.22334,Ascent,0,0,36,179.26,0.16,0.38,107.29,179.27,179.91,92.58,1,
2251917216.28334,Ascent,0,0,36,179.26,0.16,0.38,107.25,179.27,179.9,92.01,1,
2251917216.34334,Ascent,0,0,36,179.26,0.16,0.39,107.19,179.27,179.9,93.62,1,
2251917216.40334,Ascent,0,0,36,179.26,0.16,0.39,107.14,179.27,179.9,93.9,1,
2251917216.46334,Ascent,0,0,36,179.27,0.16,0.39,107.1,179.27,179.9,93.76,1,
2251917216.52334,Ascent,0,0,36,179.27,0.16,0.39,107.05,179.27,179.9,93.14,1,
2251917216.58334,Ascent,0,0,36,179.27,0.16,0.39,107.01,179.28,179.9,95.32,1,
2251917216.66334,Ascent,0,0,37,179.27,0.16,0.4,106.98,179.28,179.9,96.39,1,
2251917216.72334,Ascent,0,0,37,179.27,0.16,0.4,106.95,179.28,179.9,95.62,1,
2251917216.78334,Ascent,0,0,37,179.27,0.16,0.4,106.92,179.28,179.9,95.94,1,
2251917216.84334,Ascent,0,0,37,179.27,0.16,0.4,106.88,179.28,179.9,95.7,1,
2251917216.90334,Ascent,1,0,37,179.27,0.16,0.41,106.86,179.28,179.9,96.28,1,
2251917216.96334,Ascent,1,0,37,179.27,0.16,0.41,106.84,179.28,179.9,98.22,1,
2251917217.02334,Ascent,1,0,38,179.28,0.16,0.41,106.82,179.28,179.9,99.27,1,
2251917217.10334,Ascent,1,0,38,179.28,0.16,0.41,106.8,179.29,179.9,99.11,1,
2251917217.16334,Ascent,1,0,38,179.28,0.16,0.41,106.78,179.29,179.9,97.01,1,
2251917217.22334,Ascent,1,0,38,179.28,0.16,0.42,106.77,179.29,179.9,100.41,1,
2251917217.28334,Ascent,1,0,38,179.28,0.16,0.42,106.74,179.29,179.9,99.51,1,
2251917217.34334,Ascent,1,0,38,179.28,0.16,0.42,106.71,179.29,179.89,99.17,1,
2251917217.40334,Ascent,1,0,39,179.28,0.16,0.42,106.69,179.29,179.89,99.61,1,
2251917217.46334,Ascent,1,0,39,179.28,0.16,0.42,106.67,179.29,179.89,100.32,1,
2251917217.54334,Ascent,1,0,39,179.28,0.16,0.43,106.65,179.29,179.89,104.33,1,
2251917217.60334,Ascent,1,0,39,179.29,0.16,0.43,106.63,179.3,179.89,104.39,1,
2251917217.66334,Ascent,1,0,39,179.29,0.16,0.43,106.6,179.3,179.89,104.52,1,
2251917217.72334,Ascent,1,0,39,179.29,0.16,0.43,106.57,179.3,179.89,102.58,1,
2251917217.78334,Ascent,1,0,40,179.29,0.16,0.44,106.55,179.3,179.89,101.15,1,
2251917217.84334,Ascent,1,0,40,179.29,0.16,0.44,106.53,179.3,179.89,102.36,1,
2251917217.90334,Ascent,1,0,40,179.29,0.16,0.44,106.52,179.3,179.89,106.15,1,
2251917217.98334,Ascent,1,0,40,179.29,0.16,0.44,106.51,179.3,179.89,106.11,1,
2251917218.04334,Ascent,1,0,40,179.29,0.16,0.45,106.5,179.3,179.89,107.18,1,
2251917218.10334,Ascent,1,0,40,179.29,0.16,0.45,106.48,179.3,179.89,107.47,1,
2251917218.16334,Ascent,1,0,41,179.3,0.16,0.45,106.46,179.31,179.89,109.27,1,
2251917218.22334,Ascent,1,0,41,179.3,0.16,0.45,106.45,179.31,179.89,103.4,1,
2251917218.28334,Ascent,1,1,41,179.3,0.16,0.46,106.44,179.31,179.89,107.61,1,
2251917218.34334,Ascent,1,1,41,179.3,0.16,0.46,106.42,179.31,179.89,107.22,1,
2251917218.42334,Ascent,1,1,41,179.3,0.16,0.46,106.41,179.31,179.89,106.97,1,
2251917218.48334,Ascent,1,1,41,179.3,0.16,0.46,106.39,179.31,179.89,106.15,1,
2251917218.54334,Ascent,1,1,42,179.3,0.16,0.46,106.37,179.31,179.89,106.54,1,
2251917218.60334,Ascent,1,1,42,179.3,0.16,0.47,106.34,179.31,179.89,105.63,1,
2251917218.66334,Ascent,1,1,42,179.3,0.16,0.47,106.32,179.31,179.89,104.76,1,
2251917218.72334,Ascent,1,1,42,179.31,0.16,0.47,106.3,179.32,179.89,106.69,1,
2251917218.78334,Ascent,1,1,42,179.31,0.16,0.47,106.28,179.32,179.89,102.68,1,
2251917218.86334,Ascent,1,1,42,179.31,0.16,0.48,106.26,179.32,179.89,106.8,1,
2251917218.92334,Ascent,1,1,43,179.31,0.16,0.48,106.24,179.32,179.89,106.9,1,
2251917218.98334,Ascent,1,1,43,179.31,0.16,0.48,106.21,179.32,179.89,102.9,1,
2251917219.04334,Ascent,1,1,43,179.31,0.16,0.48,106.18,179.32,179.89,105.23,1,
2251917219.10334,Ascent,1,1,43,179.31,0.16,0.49,106.15,179.32,179.89,103.7,1,
2251917219.16334,Ascent,1,1,43,179.31,0.16,0.49,106.13,179.32,179.89,102.95,1,
2251917219.22334,Ascent,1,1,43,179.31,0.16,0.49,106.11,179.32,179.89,103.08,1,
2251917219.30334,Ascent,1,1,44,179.31,0.16,0.49,106.08,179.33,179.88,103.69,1,
2251917219.36334,Ascent,1,1,44,179.32,0.16,0.5,106.05,179.33,179.88,103.35,1,
2251917219.42334,Ascent,1,1,44,179.32,0.16,0.5,106.03,179.33,179.88,103.95,1,
2251917219.48334,Ascent,1,1,44,179.32,0.16,0.5,106,179.33,179.88,106.72,1,
2251917219.54334,Ascent,1,1,44,179.32,0.16,0.51,105.98,179.33,179.88,102.59,1,
2251917219.60334,Ascent,1,1,44,179.32,0.16,0.51,105.95,179.33,179.88,101.21,1,
2251917219.66334,Ascent,1,1,45,179.32,0.16,0.51,105.93,179.33,179.88,102.88,1,
2251917219.72334,Ascent,1,1,45,179.32,0.16,0.51,105.91,179.33,179.88,103.66,1,
2251917219.80334,Ascent,1,1,45,179.32,0.16,0.52,105.88,179.33,179.88,105.92,1,
2251917219.86334,Ascent,1,1,45,179.32,0.16,0.52,105.86,179.34,179.88,105.49,1,
2251917219.92334,Ascent,1,1,45,179.32,0.16,0.52,105.84,179.34,179.88,104.43,1,
2251917219.98334,Ascent,1,1,45,179.33,0.16,0.52,105.81,179.34,179.88,103.22,1,
2251917220.04334,Ascent,1,1,46,179.33,0.16,0.53,105.79,179.34,179.88,105.07,1,
2251917220.10334,Ascent,1,1,46,179.33,0.16,0.53,105.77,179.34,179.88,105.62,1,
2251917220.16334,Ascent,1,1,46,179.33,0.16,0.53,105.75,179.34,179.88,106.39,1,
2251917220.24334,Ascent,1,1,46,179.33,0.16,0.53,105.73,179.34,179.88,108.82,1,
2251917220.30334,Ascent,1,1,46,179.33,0.16,0.54,105.71,179.34,179.88,106.88,1,
2251917220.36334,Ascent,1,1,47,179.33,0.16,0.54,105.69,179.34,179.88,107.19,1,
2251917220.42334,Ascent,1,1,47,179.33,0.16,0.54,105.66,179.34,179.88,110.02,1,
2251917220.48334,Ascent,1,1,47,179.33,0.16,0.55,105.65,179.35,179.88,104.74,1,
2251917220.54334,Ascent,1,1,47,179.33,0.16,0.55,105.63,179.35,179.88,107.05,1,
2251917220.60334,Ascent,1,1,47,179.34,0.16,0.55,105.61,179.35,179.88,109.45,1,
2251917220.68334,Ascent,1,1,47,179.34,0.16,0.55,105.6,179.35,179.88,104.41,1,
2251917220.74334,Ascent,1,1,48,179.34,0.16,0.56,105.59,179.35,179.88,112.03,1,
2251917220.80334,Ascent,1,1,48,179.34,0.16,0.56,105.57,179.35,179.88,106.88,1,
2251917220.86334,Ascent,1,1,48,179.34,0.16,0.56,105.55,179.35,179.88,108.33,1,
2251917220.92334,Ascent,1,1,48,179.34,0.16,0.57,105.53,179.35,179.88,109.7,1,
2251917220.98334,Ascent,1,1,48,179.34,0.16,0.57,105.51,179.35,179.88,104.18,1,
2251917221.04334,Ascent,1,1,49,179.34,0.16,0.57,105.49,179.36,179.88,108.81,1,
2251917221.12334,Ascent,1,1,49,179.34,0.16,0.57,105.47,179.36,179.88,108.28,1,
2251917221.18334,Ascent,1,1,49,179.34,0.16,0.58,105.45,179.36,179.88,109.5,1,
2251917221.24334,Ascent,1,1,49,179.35,0.16,0.58,105.43,179.36,179.88,109.88,1,
2251917221.30334,Ascent,1,1,49,179.35,0.16,0.58,105.39,179.36,179.88,109.67,1,
2251917221.36334,Ascent,1,1,49,179.35,0.16,0.59,105.37,179.36,179.88,110.04,1,
2251917221.42334,Ascent,1,1,50,179.35,0.16,0.59,105.34,179.36,179.87,108.53,1,
2251917221.48334,Ascent,1,1,50,179.35,0.16,0.59,105.31,179.36,179.87,109.02,1,
2251917221.56334,Ascent,1,1,50,179.35,0.16,0.6,105.28,179.36,179.87,108.25,1,
2251917221.62334,Ascent,1,1,50,179.35,0.16,0.6,105.25,179.36,179.87,111.18,1,
2251917221.68334,Ascent,1,1,50,179.35,0.16,0.6,104.89,179.36,179.87,109.46,1,
2251917221.74334,Ascent,1,1,50,179.35,0.16,0.6,102.98,179.37,179.86,128.54,1,
2251917221.80334,Ascent,1,1,51,179.35,0.16,0.61,101.3,179.37,179.84,-66.25,1,
2251917221.86334,Ascent,1,1,51,179.34,0.16,0.61,99.73,179.37,179.81,-83.66,1,
2251917221.92334,Ascent,1,1,51,179.34,0.16,0.61,98.27,179.37,179.78,-89.55,1,
2251917222.00334,Ascent,1,1,51,179.34,0.16,0.62,96.98,179.38,179.76,-92.17,1,
2251917222.06334,Ascent,1,1,51,179.34,0.16,0.62,95.87,179.38,179.73,-93.44,1,
2251917222.12334,Ascent,1,1,51,179.33,0.16,0.62,94.92,179.38,179.7,-93.88,1,
2251917222.18334,Ascent,1,1,52,179.33,0.16,0.63,93.89,179.38,179.67,-93.68,1,
2251917222.24334,Ascent,1,1,52,179.32,0.16,0.63,93.3,179.38,179.63,-93.59,1,
2251917222.30334,Ascent,1,1,52,179.32,0.16,0.63,92.91,179.38,179.6,-93.16,1,
2251917222.36334,Ascent,1,1,52,179.31,0.16,0.64,92.73,179.37,179.57,-92.58,1,
2251917222.44334,Ascent,1,1,52,179.3,0.16,0.64,92.7,179.36,179.54,-91.81,1,
2251917222.50334,Ascent,1,1,53,179.3,0.16,0.64,92.8,179.35,179.52,-90.8,1,
2251917222.56333,Ascent,1,1,53,179.29,0.16,0.64,93.02,179.34,179.49,-89.69,1,
2251917222.62333,Ascent,1,1,53,179.28,0.16,0.65,93.48,179.33,179.47,-88,1,
2251917222.68333,Ascent,1,1,53,179.28,0.16,0.65,93.94,179.31,179.44,-86.75,1,
2251917222.74333,Ascent,1,1,53,179.28,0.16,0.66,94.48,179.3,179.42,-85.57,1,
2251917222.80333,Ascent,1,1,53,179.28,0.16,0.66,95.11,179.28,179.4,-84.46,1,
2251917222.86333,Ascent,1,1,54,179.28,0.16,0.66,95.85,179.27,179.38,-83.35,1,
2251917222.94333,Ascent,1,1,54,179.28,0.16,0.66,96.66,179.26,179.37,-82.31,1,
2251917223.00333,Ascent,1,1,54,179.29,0.16,0.67,97.58,179.24,179.36,-81.26,1,
2251917223.06333,Ascent,1,1,54,179.29,0.16,0.67,98.59,179.23,179.35,-79.89,1,
2251917223.12333,Ascent,1,1,54,179.3,0.17,0.68,100.08,179.22,179.35,-78.89,1,
2251917223.18333,Ascent,1,1,54,179.31,0.17,0.68,101.31,179.21,179.35,-77.9,1,
2251917223.24333,Ascent,1,1,55,179.31,0.17,0.68,102.64,179.19,179.35,-76.98,1,
2251917223.30333,Ascent,1,1,55,179.32,0.17,0.68,104.08,179.18,179.35,-76.02,1,
2251917223.38333,Ascent,1,1,55,179.33,0.17,0.69,105.6,179.17,179.36,-75.08,1,
2251917223.44333,Ascent,1,1,55,179.34,0.17,0.69,107.22,179.16,179.37,-74.21,1,
2251917223.50333,Ascent,1,1,55,179.35,0.17,0.69,108.92,179.16,179.38,-73.3,1,
2251917223.56333,Ascent,1,1,56,179.36,0.17,0.7,111.3,179.15,179.4,-72.12,1,
2251917223.62333,Ascent,1,1,56,179.36,0.17,0.7,113.16,179.15,179.42,-71.31,1,
2251917223.68333,Ascent,1,1,56,179.37,0.17,0.71,115.07,179.14,179.44,-70.45,1,
2251917223.74333,Ascent,1,1,56,179.38,0.17,0.71,117,179.14,179.47,-69.58,1,
2251917223.82333,Ascent,1,1,56,179.38,0.17,0.71,118.96,179.14,179.49,-68.77,1,
2251917223.88333,Ascent,1,1,56,179.39,0.17,0.71,120.91,179.14,179.52,-67.94,1,
2251917223.94333,Ascent,1,1,57,179.39,0.17,0.72,122.83,179.15,179.54,-67.11,1,
2251917224.00333,Ascent,1,1,57,179.39,0.17,0.72,125.34,179.15,179.57,-66.03,1,
2251917224.06333,Ascent,1,1,57,179.4,0.17,0.73,127.15,179.16,179.61,-65.16,1,
2251917224.12333,Ascent,1,1,57,179.4,0.17,0.73,128.87,179.16,179.65,-64.37,1,
2251917224.18333,Ascent,1,1,57,179.4,0.17,0.73,130.45,179.17,179.68,-63.55,1,
2251917224.26333,Ascent,1,1,58,179.4,0.17,0.74,131.9,179.18,179.71,-62.72,1,
2251917224.32333,Ascent,1,1,58,179.4,0.17,0.74,133.19,179.19,179.74,-61.85,1,
2251917224.38333,Ascent,1,1,58,179.4,0.17,0.74,134.31,179.2,179.77,-61.08,1,
2251917224.44333,Ascent,1,1,58,179.4,0.17,0.75,135.24,179.21,179.79,-60.1,1,
2251917224.50333,Ascent,1,1,58,179.41,0.17,0.75,136.1,179.22,179.82,-59.35,1,
2251917224.56333,Ascent,1,1,58,179.41,0.17,0.75,136.48,179.24,179.84,-58.79,1,
2251917224.62333,Ascent,1,1,59,179.42,0.17,0.76,136.62,179.25,179.85,-58.32,1,
2251917224.68333,Ascent,1,1,59,179.43,0.17,0.76,136.66,179.27,179.86,-57.91,1,
2251917224.74333,Ascent,1,1,59,179.44,0.17,0.76,136.83,179.28,179.86,-57.7,1,
2251917224.82333,Ascent,1,1,59,179.45,0.17,0.77,137.14,179.29,179.87,-57.62,1,
2251917224.88333,Ascent,1,1,59,179.45,0.17,0.77,137.35,179.31,179.87,-57.51,1,
2251917224.94333,Ascent,1,1,60,179.46,0.17,0.77,137.31,179.32,179.87,-57.49,1,
2251917225.00333,Ascent,1,1,60,179.46,0.17,0.78,137.34,179.32,179.87,-57.3,1,
2251917225.06333,Ascent,1,1,60,179.46,0.17,0.78,137.54,179.33,179.87,-57.31,1,
2251917225.12333,Ascent,1,1,60,179.46,0.17,0.79,137.62,179.33,179.87,-57.55,1,
2251917225.18333,Ascent,1,1,60,179.45,0.17,0.79,137.48,179.34,179.87,-57.42,1,
2251917225.24333,Ascent,1,1,61,179.45,0.17,0.79,137.36,179.33,179.87,-57,1,
2251917225.32333,Ascent,1,1,61,179.45,0.17,0.8,137.46,179.33,179.87,-56.7,1,
2251917225.38333,Ascent,1,1,61,179.44,0.17,0.8,137.71,179.32,179.87,-56.34,1,
2251917225.44333,Ascent,1,1,61,179.43,0.17,0.8,137.8,179.31,179.87,-55.88,1,
2251917225.50333,Ascent,1,1,61,179.42,0.17,0.81,137.83,179.3,179.88,-54.68,1,
2251917225.56333,Ascent,1,1,62,179.42,0.17,0.81,138.12,179.29,179.88,-53.9,1,
2251917225.62333,Ascent,1,1,62,179.41,0.17,0.82,138.59,179.28,179.89,-53.29,1,
2251917225.68333,Ascent,1,1,62,179.4,0.17,0.82,139.04,179.27,179.9,-52.38,1,
2251917225.74333,Ascent,1,1,62,179.39,0.17,0.82,139.39,179.25,179.91,-51.13,1,
2251917225.82333,Ascent,1,1,62,179.38,0.17,0.83,139.83,179.24,179.92,-50.02,1,
2251917225.88333,Ascent,1,1,62,179.37,0.17,0.83,140.38,179.23,179.93,-48.85,1,
2251917225.94333,Ascent,1,1,63,179.36,0.17,0.83,141.05,179.21,179.94,-47.64,1,
2251917226.00333,Ascent,1,1,63,179.35,0.17,0.84,141.86,179.2,179.95,-46,1,
2251917226.06333,Ascent,1,1,63,179.34,0.17,0.84,143.02,179.19,179.97,-44.68,1,
2251917226.12333,Ascent,1,1,63,179.33,0.17,0.85,143.91,179.18,179.99,-43.36,1,
2251917226.18333,Ascent,1,1,63,179.32,0.17,0.85,144.81,179.17,-179.99,-42.05,1,
2251917226.24333,Ascent,1,1,64,179.31,0.17,0.85,145.77,179.17,-179.98,-40.75,1,
2251917226.32333,Ascent,1,1,64,179.3,0.17,0.86,146.74,179.16,-179.96,-39.43,1,
2251917226.38333,Ascent,1,1,64,179.29,0.17,0.86,147.75,179.16,-179.94,-38.11,1,
2251917226.44333,Ascent,1,1,64,179.28,0.17,0.87,148.72,179.16,-179.92,-36.78,1,
2251917226.50333,Ascent,1,1,64,179.27,0.17,0.87,149.75,179.15,-179.9,-35.08,1,
2251917226.56333,Ascent,1,1,65,179.27,0.17,0.87,151.18,179.15,-179.88,-33.79,1,
2251917226.62333,Ascent,1,1,65,179.26,0.17,0.88,152.24,179.16,-179.86,-32.55,1,
2251917226.68333,Ascent,1,1,65,179.25,0.17,0.88,153.28,179.16,-179.84,-31.32,1,
2251917226.74333,Ascent,1,1,65,179.24,0.17,0.89,154.31,179.16,-179.83,-30.18,1,
2251917226.82333,Ascent,1,1,65,179.24,0.17,0.89,155.29,179.17,-179.81,-29.1,1,
2251917226.88333,Ascent,1,1,66,179.23,0.17,0.89,156.24,179.18,-179.79,-28.01,1,
2251917226.94333,Ascent,1,1,66,179.22,0.17,0.9,157.14,179.18,-179.78,-26.96,1,
2251917227.00333,Ascent,1,1,66,179.21,0.17,0.9,158.28,179.19,-179.76,-25.6,1,
2251917227.06333,Ascent,1,1,66,179.2,0.17,0.91,159.1,179.19,-179.75,-24.64,1,
2251917227.12333,Ascent,1,1,66,179.19,0.17,0.91,159.87,179.2,-179.74,-23.72,1,
2251917227.18333,Ascent,1,1,67,179.19,0.17,0.92,160.61,179.2,-179.72,-22.82,1,
2251917227.24333,Ascent,1,1,67,179.18,0.17,0.92,161.33,179.21,-179.71,-21.97,1,
2251917227.32333,Ascent,1,1,67,179.17,0.17,0.92,162.01,179.21,-179.7,-21.14,1,
2251917227.38333,Ascent,1,1,67,179.17,0.17,0.93,162.68,179.22,-179.69,-20.33,1,
2251917227.44333,Ascent,1,1,67,179.16,0.17,0.93,163.32,179.22,-179.68,-19.57,1,
2251917227.50333,Ascent,1,1,68,179.15,0.17,0.93,164.14,179.23,-179.68,-18.57,1,
2251917227.56333,Ascent,1,1,68,179.14,0.17,0.94,164.74,179.23,-179.67,-17.89,1,
2251917227.62333,Ascent,1,1,68,179.14,0.17,0.94,165.31,179.23,-179.66,-17.21,1,
2251917227.68333,Ascent,1,1,68,179.13,0.17,0.95,165.88,179.23,-179.65,-16.58,1,
2251917227.76333,Ascent,1,1,68,179.12,0.17,0.95,166.44,179.24,-179.65,-15.92,1,
2251917227.82333,Ascent,1,1,69,179.11,0.17,0.96,166.99,179.24,-179.64,-15.31,1,
2251917227.88333,Ascent,1,1,69,179.1,0.17,0.96,167.53,179.24,-179.63,-14.72,1,
2251917227.94333,Ascent,1,1,69,179.09,0.17,0.96,168.07,179.24,-179.63,-13.97,1,
2251917228.00333,Ascent,1,1,69,179.08,0.17,0.97,168.77,179.24,-179.62,-13.41,1,
2251917228.06333,Ascent,1,1,69,179.07,0.17,0.97,169.3,179.24,-179.62,-12.87,1,
2251917228.12333,Ascent,1,1,70,179.06,0.17,0.98,169.83,179.24,-179.61,-12.35,1,
2251917228.18333,Ascent,1,1,70,179.05,0.17,0.98,170.35,179.24,-179.6,-11.84,1,
2251917228.26333,Ascent,1,1,70,179.04,0.17,0.99,170.88,179.24,-179.6,-11.35,1,
2251917228.32333,Ascent,1,1,70,179.03,0.17,0.99,171.4,179.24,-179.59,-10.87,1,
2251917228.38333,Ascent,1,1,70,179.02,0.17,0.99,171.91,179.24,-179.59,-10.42,1,
2251917228.44333,Ascent,1,1,71,179,0.17,1,172.59,179.24,-179.58,-9.83,1,
2251917228.50333,Ascent,1,1,71,178.99,0.17,1,173.09,179.24,-179.58,-9.4,1,
2251917228.56333,Ascent,1,1,71,178.98,0.17,1.01,173.59,179.24,-179.57,-8.98,1,
2251917228.62333,Ascent,1,1,71,178.97,0.17,1.01,174.07,179.24,-179.57,-8.56,1,
2251917228.68333,Ascent,1,1,71,178.95,0.17,1.02,174.56,179.24,-179.56,-8.17,1,
2251917228.76333,Ascent,1,1,72,178.94,0.17,1.02,175.03,179.24,-179.56,-7.79,1,
2251917228.82333,Ascent,1,1,72,178.93,0.17,1.03,175.5,179.24,-179.55,-7.41,1,
2251917228.88333,Ascent,1,1,72,178.91,0.17,1.03,175.96,179.24,-179.55,-7.04,1,
2251917228.94333,Ascent,1,1,72,178.89,0.17,1.03,176.56,179.25,-179.54,-6.56,1,
2251917229.00333,Ascent,1,1,72,178.88,0.17,1.04,177,179.25,-179.54,-6.23,1,
2251917229.06333,Ascent,1,1,73,178.86,0.17,1.04,177.44,179.25,-179.53,-5.91,1,
2251917229.12333,Ascent,1,1,73,178.85,0.17,1.05,177.86,179.26,-179.53,-5.58,1,
2251917229.20333,Ascent,1,1,73,178.83,0.17,1.05,178.28,179.26,-179.52,-5.28,1,
2251917229.26333,Ascent,1,2,73,178.82,0.17,1.06,178.68,179.26,-179.52,-4.97,1,
2251917229.32333,Ascent,1,2,73,178.8,0.17,1.06,179.08,179.26,-179.52,-4.69,1,
2251917229.38333,Ascent,1,2,74,178.78,0.17,1.07,179.47,179.27,-179.51,-4.31,1,
2251917229.44333,Ascent,1,2,74,178.77,0.17,1.07,179.98,179.27,-179.51,-4.05,1,
2251917229.50333,Ascent,1,2,74,178.75,0.17,1.08,-179.65,179.27,-179.5,-3.79,1,
2251917229.56333,Ascent,1,2,74,178.74,0.17,1.08,-179.28,179.27,-179.5,-3.54,1,
2251917229.62333,Ascent,1,2,74,178.72,0.17,1.09,-178.92,179.28,-179.5,-3.3,1,
2251917229.68333,Ascent,1,2,75,178.71,0.17,1.09,-178.57,179.29,-179.49,-3.07,1,
2251917229.76333,Ascent,1,2,75,178.69,0.17,1.09,-178.23,179.29,-179.49,-2.85,1,
2251917229.82333,Ascent,1,2,75,178.68,0.17,1.1,-177.89,179.29,-179.49,-2.64,1,
2251917229.88333,Ascent,1,2,75,178.66,0.17,1.1,-177.56,179.3,-179.49,-2.43,1,
2251917229.94333,Ascent,1,2,75,178.64,0.17,1.11,-177.23,179.3,-179.48,-2.17,1,
2251917230.00333,Ascent,1,2,76,178.63,0.17,1.11,-176.81,179.3,-179.48,-1.98,1,
2251917230.06333,Ascent,1,2,76,178.61,0.17,1.12,-176.5,179.3,-179.48,-1.81,1,
2251917230.12333,Ascent,1,2,76,178.6,0.17,1.12,-176.19,179.31,-179.48,-1.63,1,
2251917230.18333,Ascent,1,2,76,178.58,0.17,1.13,-175.9,179.31,-179.47,-1.47,1,
2251917230.24333,Ascent,1,2,76,178.56,0.17,1.13,-175.61,179.32,-179.47,-1.32,1,
2251917230.32333,Ascent,1,2,77,178.55,0.17,1.14,-175.32,179.32,-179.47,-1.18,1,
2251917230.38333,Ascent,1,2,77,178.53,0.17,1.14,-175.04,179.32,-179.47,-1.03,1,
2251917230.44333,Ascent,1,2,77,178.51,0.17,1.15,-174.77,179.32,-179.47,-0.89,1,
2251917230.50333,Ascent,1,2,77,178.49,0.17,1.15,-174.49,179.33,-179.47,-0.73,1,
2251917230.56333,Ascent,1,2,77,178.48,0.17,1.15,-174.14,179.33,-179.46,-0.61,1,
2251917230.62333,Ascent,1,2,78,178.46,0.17,1.16,-173.88,179.33,-179.46,-0.5,1,
2251917230.68333,Ascent,1,2,78,178.44,0.17,1.17,-173.63,179.34,-179.46,-0.39,1,
2251917230.74333,Ascent,1,2,78,178.43,0.17,1.17,-173.38,179.34,-179.46,-0.28,1,
2251917230.80333,Ascent,1,2,78,178.41,0.17,1.17,-173.13,179.34,-179.46,-0.18,1,
2251917230.88333,Ascent,1,2,79,178.39,0.17,1.18,-172.9,179.35,-179.46,-0.09,1,
2251917230.94333,Ascent,1,2,79,178.38,0.17,1.18,-172.67,179.35,-179.46,-0.01,1,
2251917231.00333,Ascent,1,2,79,178.36,0.17,1.19,-172.44,179.35,-179.46,0.07,1,
2251917231.06333,Ascent,1,2,79,178.34,0.17,1.19,-172.22,179.36,-179.46,0.17,1,
2251917231.12333,Ascent,1,2,79,178.32,0.17,1.2,-171.93,179.36,-179.46,0.24,1,
2251917231.18333,Ascent,1,2,80,178.3,0.17,1.2,-171.71,179.36,-179.46,0.31,1,
2251917231.24333,Ascent,1,2,80,178.29,0.17,1.21,-171.51,179.36,-179.45,0.37,1,
2251917231.30333,Ascent,1,2,80,178.27,0.17,1.21,-171.3,179.37,-179.45,0.42,1,
2251917231.36333,Ascent,1,2,80,178.25,0.17,1.22,-171.1,179.37,-179.45,0.47,1,
2251917231.44333,Ascent,1,2,80,178.23,0.17,1.22,-170.9,179.37,-179.45,0.54,1,
2251917231.50333,Ascent,1,3,81,178.22,0.17,1.23,-170.7,179.38,-179.45,0.59,1,
2251917231.56333,Ascent,1,3,81,178.19,0.17,1.23,-170.51,179.38,-179.45,0.62,1,
2251917231.62333,Ascent,1,3,81,178.17,0.17,1.24,-170.32,179.38,-179.45,0.69,1,
2251917231.68333,Ascent,1,3,81,178.16,0.17,1.24,-170.07,179.39,-179.45,0.73,1,
2251917231.74333,Ascent,1,3,81,178.14,0.17,1.25,-169.89,179.39,-179.45,0.78,1,
2251917231.80333,Ascent,1,3,82,178.12,0.17,1.25,-169.71,179.39,-179.45,0.81,1,
2251917231.86333,Ascent,1,3,82,178.1,0.17,1.26,-169.53,179.4,-179.45,0.84,1,
2251917231.92333,Ascent,1,3,82,178.08,0.17,1.26,-169.36,179.4,-179.45,0.89,1,
2251917232.00333,Ascent,1,3,82,178.06,0.18,1.27,-169.19,179.41,-179.45,0.92,1,
2251917232.06333,Ascent,1,3,83,178.04,0.18,1.27,-169.02,179.41,-179.45,0.95,1,
2251917232.12333,Ascent,1,3,83,178.02,0.18,1.28,-168.86,179.42,-179.45,0.99,1,
2251917232.18333,Ascent,1,3,83,178,0.18,1.28,-168.7,179.42,-179.45,1.02,1,
2251917232.24333,Ascent,1,3,83,177.98,0.18,1.29,-168.48,179.42,-179.45,1.03,1,
2251917232.30333,Ascent,1,3,83,177.96,0.18,1.3,-168.33,179.43,-179.45,1.07,1,
2251917232.36333,Ascent,1,3,84,177.94,0.18,1.3,-168.18,179.43,-179.45,1.08,1,
2251917232.42333,Ascent,1,3,84,177.92,0.18,1.31,-168.03,179.44,-179.45,1.1,1,
2251917232.48333,Ascent,1,3,84,177.9,0.18,1.31,-167.88,179.44,-179.45,1.13,1,
2251917232.56333,Ascent,1,3,84,177.89,0.18,1.32,-167.74,179.45,-179.45,1.14,1,
2251917232.62333,Ascent,1,3,85,177.87,0.18,1.32,-167.6,179.45,-179.45,1.15,1,
2251917232.68333,Ascent,1,3,85,177.84,0.18,1.33,-167.47,179.46,-179.45,1.15,1,
2251917232.74333,Ascent,1,3,85,177.82,0.18,1.33,-167.34,179.46,-179.45,1.17,1,
2251917232.80333,Ascent,1,3,85,177.8,0.18,1.34,-167.16,179.47,-179.45,1.18,1,
2251917232.86333,Ascent,1,3,85,177.78,0.18,1.34,-167.03,179.47,-179.45,1.19,1,
2251917232.92333,Ascent,1,3,86,177.76,0.18,1.35,-166.91,179.48,-179.45,1.21,1,
2251917232.98333,Ascent,1,3,86,177.75,0.18,1.35,-166.79,179.48,-179.45,1.19,1,
2251917233.04332,Ascent,1,3,86,177.73,0.18,1.36,-166.67,179.49,-179.45,1.2,1,
2251917233.12332,Ascent,1,3,86,177.71,0.18,1.36,-166.56,179.49,-179.45,1.21,1,
2251917233.18332,Ascent,1,4,87,177.69,0.18,1.37,-166.44,179.5,-179.45,1.21,1,
2251917233.24332,Ascent,1,4,87,177.66,0.18,1.37,-166.34,179.5,-179.45,1.21,1,
2251917233.30332,Ascent,1,4,87,177.64,0.18,1.38,-166.23,179.51,-179.45,1.23,1,
2251917233.36332,Ascent,2,4,87,177.62,0.18,1.38,-166.08,179.51,-179.45,1.21,1,
2251917233.42332,Ascent,2,4,87,177.6,0.18,1.39,-165.98,179.52,-179.45,1.22,1,
2251917233.48332,Ascent,2,4,88,177.58,0.18,1.4,-165.88,179.52,-179.45,1.22,1,
2251917233.54332,Ascent,2,4,88,177.56,0.18,1.4,-165.77,179.53,-179.45,1.21,1,
2251917233.60332,Ascent,2,4,88,177.54,0.18,1.41,-165.68,179.53,-179.45,1.22,1,
2251917233.68332,Ascent,2,4,88,177.52,0.18,1.41,-165.58,179.54,-179.46,1.21,1,
2251917233.74332,Ascent,2,4,88,177.5,0.18,1.42,-165.49,179.54,-179.46,1.21,1,
2251917233.80332,Ascent,2,4,89,177.48,0.18,1.42,-165.4,179.55,-179.45,1.23,1,
2251917233.86332,Ascent,2,4,89,177.46,0.18,1.43,-165.31,179.55,-179.46,1.22,1,
2251917233.92332,Ascent,2,4,89,177.44,0.18,1.43,-165.18,179.56,-179.46,1.21,1,
2251917233.98332,Ascent,2,4,89,177.42,0.18,1.44,-165.09,179.56,-179.46,1.2,1,
2251917234.04332,Ascent,2,4,90,177.4,0.18,1.45,-165.01,179.57,-179.46,1.2,1,
2251917234.10332,Ascent,2,4,90,177.38,0.18,1.45,-164.92,179.57,-179.46,1.2,1,
2251917234.16332,Ascent,2,4,90,177.36,0.18,1.46,-164.84,179.58,-179.46,1.19,1,
2251917234.24332,Ascent,2,4,90,177.34,0.18,1.46,-164.75,179.58,-179.46,1.2,1,
2251917234.30332,Ascent,2,4,91,177.32,0.18,1.47,-164.67,179.59,-179.46,1.21,1,
2251917234.36332,Ascent,2,4,91,177.3,0.18,1.47,-164.6,179.59,-179.46,1.2,1,
2251917234.42332,Ascent,2,4,91,177.27,0.18,1.48,-164.52,179.6,-179.46,1.17,1,
2251917234.48332,Ascent,2,4,91,177.25,0.18,1.48,-164.41,179.6,-179.46,1.18,1,
2251917234.54332,Ascent,2,4,91,177.23,0.18,1.49,-164.34,179.61,-179.46,1.17,1,
2251917234.60332,Ascent,2,4,92,177.21,0.18,1.5,-164.27,179.61,-179.46,1.16,1,
2251917234.66332,Ascent,2,5,92,177.19,0.18,1.5,-164.2,179.62,-179.46,1.15,1,
2251917234.72332,Ascent,2,5,92,177.17,0.18,1.51,-164.13,179.63,-179.46,1.16,1,
2251917234.78332,Ascent,2,5,92,177.15,0.19,1.51,-164.06,179.63,-179.46,1.14,1,
2251917234.86332,Ascent,2,5,93,177.13,0.19,1.52,-163.99,179.64,-179.46,1.14,1,
2251917234.92332,Ascent,2,5,93,177.11,0.19,1.52,-163.94,179.64,-179.46,1.12,1,
2251917234.98332,Ascent,2,5,93,177.08,0.19,1.53,-163.87,179.65,-179.46,1.11,1,
2251917235.04332,Ascent,2,5,93,177.06,0.19,1.53,-163.78,179.65,-179.46,1.1,1,
2251917235.10332,Ascent,2,5,93,177.04,0.19,1.54,-163.72,179.66,-179.46,1.08,1,
2251917235.16332,Ascent,2,5,94,177.02,0.19,1.55,-163.67,179.66,-179.46,1.08,1,
2251917235.22332,Ascent,2,5,94,176.99,0.19,1.55,-163.61,179.67,-179.47,1.06,1,
2251917235.28332,Ascent,2,5,94,176.97,0.19,1.56,-163.56,179.68,-179.47,1.06,1,
2251917235.34332,Ascent,2,5,94,176.95,0.19,1.56,-163.5,179.68,-179.47,1.06,1,
2251917235.42332,Ascent,2,5,95,176.93,0.19,1.57,-163.45,179.69,-179.47,1.03,1,
2251917235.48332,Ascent,2,5,95,176.91,0.19,1.58,-163.4,179.7,-179.47,1.04,1,
2251917235.54332,Ascent,2,5,95,176.88,0.19,1.58,-163.36,179.7,-179.47,1.03,1,
2251917235.60332,Ascent,2,5,95,176.86,0.19,1.59,-163.28,179.71,-179.47,1.01,1,
2251917235.66332,Ascent,2,5,95,176.84,0.19,1.59,-163.23,179.71,-179.47,0.99,1,
2251917235.72332,Ascent,2,5,96,176.82,0.19,1.6,-163.19,179.72,-179.47,0.99,1,
2251917235.78332,Ascent,2,5,96,176.8,0.19,1.61,-163.14,179.72,-179.47,0.96,1,
2251917235.84332,Ascent,2,5,96,176.78,0.19,1.61,-163.1,179.73,-179.47,0.97,1,
2251917235.90332,Ascent,2,5,96,176.76,0.19,1.62,-163.05,179.74,-179.47,0.96,1,
2251917235.98332,Ascent,2,6,97,176.74,0.19,1.62,-163.01,179.74,-179.47,0.94,1,
2251917236.04332,Ascent,2,6,97,176.71,0.19,1.63,-162.97,179.75,-179.47,0.94,1,
2251917236.10332,Ascent,2,6,97,176.69,0.19,1.64,-162.94,179.75,-179.47,0.93,1,
2251917236.16332,Ascent,2,6,97,176.66,0.19,1.64,-162.91,179.76,-179.47,0.92,1,
2251917236.22332,Ascent,2,6,97,176.64,0.19,1.65,-162.85,179.77,-179.47,0.9,1,
2251917236.28332,Ascent,2,6,98,176.62,0.19,1.65,-162.81,179.77,-179.47,0.9,1,
2251917236.34332,Ascent,2,6,98,176.6,0.19,1.66,-162.77,179.78,-179.47,0.9,1,
2251917236.40332,Ascent,2,6,98,176.58,0.19,1.67,-162.74,179.79,-179.47,0.88,1,
2251917236.46332,Ascent,2,6,98,176.56,0.19,1.67,-162.71,179.79,-179.48,0.86,1,
2251917236.54332,Ascent,2,6,99,176.54,0.19,1.68,-162.68,179.8,-179.48,0.86,1,
2251917236.60332,Ascent,2,6,99,176.51,0.19,1.68,-162.65,179.81,-179.48,0.86,1,
2251917236.66332,Ascent,2,6,99,176.49,0.19,1.69,-162.63,179.81,-179.48,0.83,1,
2251917236.72332,Ascent,2,6,99,176.46,0.2,1.7,-162.6,179.82,-179.48,0.84,1,
2251917236.78332,Ascent,2,6,100,176.44,0.2,1.7,-162.55,179.82,-179.48,0.83,1,
2251917236.84332,Ascent,2,6,100,176.42,0.2,1.71,-162.52,179.83,-179.48,0.81,1,
2251917236.90332,Ascent,2,6,100,176.4,0.2,1.72,-162.5,179.84,-179.48,0.81,1,
2251917236.96332,Ascent,2,6,100,176.38,0.2,1.72,-162.47,179.85,-179.48,0.8,1,
2251917237.02332,Ascent,2,6,101,176.36,0.2,1.73,-162.45,179.85,-179.48,0.79,1,
2251917237.10332,Ascent,2,6,101,176.34,0.2,1.73,-162.42,179.86,-179.48,0.79,1,
2251917237.16332,Ascent,2,7,101,176.31,0.2,1.74,-162.4,179.86,-179.48,0.78,1,
2251917237.22332,Ascent,2,7,101,176.28,0.2,1.75,-162.39,179.87,-179.48,0.76,1,
2251917237.28332,Ascent,2,7,102,176.26,0.2,1.75,-162.37,179.88,-179.48,0.76,1,
2251917237.34332,Ascent,2,7,102,176.24,0.2,1.76,-162.33,179.88,-179.48,0.75,1,
2251917237.40332,Ascent,2,7,102,176.22,0.2,1.77,-162.31,179.89,-179.48,0.73,1,
2251917237.46332,Ascent,2,7,102,176.2,0.2,1.77,-162.29,179.9,-179.48,0.73,1,
2251917237.52332,Ascent,2,7,102,176.18,0.2,1.78,-162.27,179.9,-179.48,0.72,1,
2251917237.58332,Ascent,2,7,103,176.15,0.2,1.79,-162.25,179.91,-179.48,0.71,1,
2251917237.66332,Ascent,2,7,103,176.13,0.2,1.79,-162.24,179.92,-179.48,0.7,1,
2251917237.72332,Ascent,2,7,103,176.11,0.2,1.8,-162.22,179.92,-179.49,0.69,1,
2251917237.78332,Ascent,2,7,103,176.08,0.2,1.8,-162.22,179.93,-179.49,0.67,1,
2251917237.84332,Ascent,2,7,104,176.06,0.2,1.81,-162.21,179.94,-179.49,0.66,1,
2251917237.90332,Ascent,2,7,104,176.04,0.2,1.82,-162.18,179.94,-179.49,0.65,1,
2251917237.96332,Ascent,2,7,104,176.02,0.2,1.82,-162.17,179.95,-179.49,0.65,1,
2251917238.02332,Ascent,2,7,104,175.99,0.2,1.83,-162.16,179.96,-179.49,0.63,1,
2251917238.08332,Ascent,2,7,105,175.97,0.2,1.84,-162.15,179.97,-179.49,0.62,1,
2251917238.14332,Ascent,2,7,105,175.95,0.2,1.84,-162.14,179.97,-179.49,0.6,1,
2251917238.22332,Ascent,2,8,105,175.93,0.2,1.85,-162.13,179.98,-179.49,0.59,1,
2251917238.28332,Ascent,2,8,105,175.91,0.21,1.86,-162.13,179.99,-179.49,0.58,1,
2251917238.34332,Ascent,2,8,106,175.88,0.21,1.86,-162.14,179.99,-179.49,0.58,1,
2251917238.40332,Ascent,2,8,106,175.86,0.21,1.87,-162.13,180,-179.49,0.57,1,
2251917238.46332,Ascent,2,8,106,175.83,0.21,1.88,-162.11,-179.99,-179.49,0.56,1,
2251917238.52332,Ascent,2,8,106,175.81,0.21,1.88,-162.11,-179.99,-179.49,0.55,1,
2251917238.58332,Ascent,2,8,106,175.79,0.21,1.89,-162.11,-179.98,-179.49,0.55,1,
2251917238.64332,Ascent,2,8,107,175.77,0.21,1.9,-162.1,-179.97,-179.49,0.54,1,
2251917238.70332,Ascent,2,8,107,175.75,0.21,1.9,-162.1,-179.97,-179.49,0.53,1,
2251917238.78332,Ascent,2,8,107,175.72,0.21,1.91,-162.1,-179.96,-179.5,0.53,1,
2251917238.84332,Ascent,2,8,107,175.7,0.21,1.92,-162.11,-179.95,-179.5,0.52,1,
2251917238.90332,Ascent,2,8,108,175.67,0.21,1.92,-162.11,-179.94,-179.5,0.51,1,
2251917238.96332,Ascent,2,8,108,175.65,0.21,1.93,-162.1,-179.94,-179.5,0.51,1,
2251917239.02332,Ascent,2,8,108,175.63,0.21,1.94,-162.1,-179.93,-179.5,0.5,1,
2251917239.08332,Ascent,2,8,108,175.61,0.21,1.94,-162.1,-179.93,-179.5,0.5,1,
2251917239.14332,Ascent,2,8,109,175.58,0.21,1.95,-162.1,-179.92,-179.5,0.49,1,
2251917239.20332,Ascent,2,8,109,175.56,0.21,1.96,-162.11,-179.91,-179.5,0.49,1,
2251917239.28332,Ascent,2,9,109,175.54,0.21,1.96,-162.11,-179.91,-179.5,0.49,1,
2251917239.34332,Ascent,2,9,109,175.52,0.21,1.97,-162.11,-179.9,-179.5,0.48,1,
2251917239.40332,Ascent,2,9,110,175.49,0.21,1.98,-162.13,-179.9,-179.5,0.47,1,
2251917239.46332,Ascent,2,9,110,175.47,0.21,1.98,-162.14,-179.89,-179.5,0.46,1,
2251917239.52332,Ascent,2,9,110,175.45,0.21,1.99,-162.13,-179.89,-179.5,0.46,1,
2251917239.58332,Ascent,2,9,110,175.43,0.22,2,-162.14,-179.89,-179.5,0.45,1,
2251917239.64332,Ascent,2,9,111,175.41,0.22,2.01,-162.15,-179.89,-179.5,0.44,1,
2251917239.70332,Ascent,2,9,111,175.39,0.22,2.01,-162.15,-179.88,-179.5,0.43,1,
2251917239.78332,Ascent,2,9,111,175.37,0.22,2.02,-162.16,-179.88,-179.5,0.43,1,
2251917239.84332,Ascent,2,9,111,175.34,0.22,2.03,-162.17,-179.88,-179.5,0.42,1,
2251917239.90332,Ascent,2,9,112,175.32,0.22,2.03,-162.2,-179.88,-179.51,0.41,1,
2251917239.96332,Ascent,2,9,112,175.29,0.22,2.04,-162.21,-179.87,-179.51,0.4,1,
2251917240.02332,Ascent,2,9,112,175.27,0.22,2.05,-162.2,-179.87,-179.51,0.4,1,
2251917240.08332,Ascent,2,9,112,175.25,0.22,2.05,-162.22,-179.87,-179.51,0.38,1,
2251917240.14332,Ascent,2,9,113,175.23,0.22,2.06,-162.23,-179.87,-179.51,0.38,1,
2251917240.20332,Ascent,2,9,113,175.21,0.22,2.07,-162.24,-179.87,-179.51,0.37,1,
2251917240.26332,Ascent,2,10,113,175.18,0.22,2.07,-162.25,-179.87,-179.51,0.36,1,
