Time,Phase,Altitude,Horizontal speed,Vertical speed,Retro to Zenith,Surface distance,Pad distance,Pad heading,Pitch ang,Yaw ang,Roll ang,
2251917214.56334,Ascent,0,0,0,172.78,0.16,0.18,244.34,-174.29,-177.36,173.6,0,
2251917214.72334,Ascent,0,0,0,171.85,0.16,0.18,225.42,173.38,-175.22,173.59,0,
2251917214.88334,Ascent,0,0,0,173.41,0.16,0.18,216.68,177.27,-174,173.64,0,
2251917215.04334,Ascent,0,0,0,174.48,0.16,0.18,216.74,174.87,-177.96,173.61,0,
2251917215.20334,Ascent,0,0,0,169.13,0.16,0.18,215.38,-171.54,-173.06,173.67,0,
2251917215.36334,Ascent,0,0,0,165.23,0.16,0.18,219.16,-166.28,-174.3,173.6,0,
2251917215.52334,Ascent,0,0,0,174.86,0.16,0.18,224.65,-176.74,-176.01,173.59,0,
2251917215.68334,Ascent,0,0,0,139.42,0.16,0.18,227.01,-146.72,151.16,173.61,0,
2251917215.84334,Ascent,0,0,0,157.24,0.16,0.18,175.77,160.53,-167.28,173.61,0,
2251917216.00334,Ascent,0,0,0,176.79,0.16,0.18,212.58,-178.36,-177.24,173.6,0,
2251917216.16334,Ascent,0,0,0,172.34,0.16,0.18,220.13,179.65,-172.35,173.6,0,
2251917216.32334,Ascent,0,0,0,160.86,0.16,0.18,231.55,-166.29,-166.11,173.53,0,
2251917216.48334,Ascent,0,0,0,161.68,0.16,0.18,208.06,165.91,167.82,173.61,0,
2251917216.64334,Ascent,0,0,0,176.03,0.16,0.18,223.6,-179.65,-176.04,173.6,0,
2251917216.80334,Ascent,0,0,0,174.76,0.16,0.18,205.34,177.9,-175.2,173.64,0,
2251917216.96334,Ascent,0,0,0,171.85,0.16,0.18,221.01,-179.78,-171.85,173.6,0,
2251917217.12334,Ascent,0,0,0,169.79,0.16,0.18,222.35,-173.7,-171.89,173.6,0,
2251917217.28334,Ascent,0,0,0,172.79,0.16,0.18,231.06,-172.92,-178.59,173.53,0,
2251917217.44334,Ascent,0,0,0,169.63,0.16,0.18,220.93,-176.53,-170.21,173.6,0,
2251917217.60334,Ascent,0,0,0,173.02,0.16,0.18,232.19,-176.07,-174.21,173.6,0,
2251917217.76334,Ascent,0,0,0,174.35,0.16,0.18,223.42,-176.17,-175.82,173.6,0,
2251917217.92334,Ascent,0,0,0,171.78,0.16,0.18,223.31,-171.98,178.15,173.52,0,
2251917218.08334,Ascent,0,0,0,149.49,0.16,0.18,202.16,156.17,-158.7,173.6,0,
2251917218.24334,Ascent,0,0,0,166.12,0.16,0.18,207.55,168.07,-172.71,173.61,0,
2251917218.40334,Ascent,0,0,0,151.23,0.16,0.18,209.9,157.7,-159.96,173.6,0,
2251917218.56334,Ascent,0,0,0,167.44,0.16,0.18,229.86,-170.61,-171.49,173.51,0,
2251917218.72334,Ascent,0,0,0,165.35,0.16,0.18,230.42,-166.33,-174.49,173.61,0,
2251917218.88334,Ascent,0,0,0,171.95,0.16,0.18,217.28,-179.7,-171.95,173.6,0,
2251917219.04334,Ascent,0,0,0,168.29,0.16,0.18,235.51,-169.15,175.47,173.6,0,
2251917219.20334,Ascent,0,0,0,132.39,0.16,0.18,221.78,-138.46,147.2,173.62,0,
2251917219.36334,Ascent,0,0,0,172.58,0.16,0.18,222.13,179.67,-172.58,173.58,0,
2251917219.52334,Ascent,0,0,0,172.38,0.16,0.18,225.51,-174.46,-174.72,173.53,0,
2251917219.68334,Ascent,0,0,0,154.35,0.16,0.18,217.35,161.97,-160.57,173.6,0,
2251917219.84334,Ascent,0,0,0,172.37,0.16,0.18,212.1,179.12,-172.42,173.6,0,
2251917220.00334,Ascent,0,0,0,149.96,0.16,0.18,216.62,-151.84,-167.64,173.53,0,
2251917220.16334,Ascent,0,0,0,172.83,0.16,0.18,216.28,179.51,-172.85,173.6,0,
2251917220.32334,Ascent,0,0,0,167.35,0.16,0.18,216.02,167.42,178.68,173.68,0,
2251917220.48334,Ascent,0,0,0,172.33,0.16,0.18,216.62,176.96,-172.95,173.6,0,
2251917220.64334,Ascent,0,0,0,171.83,0.16,0.18,225.14,173.69,-174.78,173.61,0,
2251917220.80334,Ascent,0,0,0,166.22,0.16,0.18,209.7,169.45,-170.94,173.66,0,
2251917220.96334,Ascent,0,0,0,176.34,0.16,0.18,211.98,-179.35,-176.4,173.6,0,
2251917221.12334,Ascent,0,0,0,157.59,0.16,0.18,202.64,167.42,160.89,173.6,0,
2251917221.28334,Ascent,0,0,0,141.9,0.16,0.18,218.01,143.55,165.27,173.61,0,
2251917221.44334,Ascent,0,0,0,167.61,0.16,0.18,217.25,176.14,-168.19,173.59,0,
2251917221.60334,Ascent,0,0,0,160.45,0.16,0.18,213.94,169.14,163.37,173.6,0,
2251917221.76334,Ascent,0,0,0,172.95,0.16,0.18,221.62,179.64,-172.96,173.6,0,
2251917221.92334,Ascent,0,0,0,169.82,0.16,0.18,222.48,-173,-172.52,173.6,0,
2251917222.08334,Ascent,0,0,0,177.62,0.16,0.18,153.37,179.19,-177.76,173.64,0,
2251917222.24334,Ascent,0,0,0,172.87,0.16,0.18,214.08,176.6,-173.72,173.58,0,
2251917222.40334,Ascent,0,0,0,169.61,0.16,0.18,219.93,173.29,-172,173.66,0,
2251917222.56333,Ascent,0,0,0,164.78,0.16,0.18,205.65,-172.19,166.78,173.61,0,
2251917222.72333,Ascent,0,0,0,142.74,0.16,0.18,218.12,144.64,164.73,173.61,0,
2251917222.88333,Ascent,0,0,0,160.51,0.16,0.18,214.59,163.79,-168.6,173.6,0,
2251917223.04333,Ascent,0,0,0,161.21,0.16,0.18,203.2,173.36,-162.27,173.6,0,
2251917223.20333,Ascent,0,0,0,172.67,0.16,0.18,212.07,175.59,-174.12,173.6,0,
2251917223.36333,Ascent,0,0,0,160.83,0.16,0.18,216.62,-161.08,-176.61,173.54,0,
2251917223.52333,Ascent,0,0,0,170.38,0.16,0.18,213.75,-170.8,-177.1,173.6,0,
2251917223.68333,Ascent,0,0,0,177.06,0.16,0.18,221.89,-177.64,178.24,173.6,0,
2251917223.84333,Ascent,0,0,0,152.2,0.16,0.18,213.07,160.44,-158.73,173.6,0,
2251917224.00333,Ascent,0,0,0,171.26,0.16,0.18,222.91,-172.5,-175.44,173.61,0,
2251917224.16333,Ascent,0,0,0,177.64,0.16,0.18,200.74,178.6,-178.11,173.64,0,
2251917224.32333,Ascent,0,0,0,173.45,0.16,0.18,220.06,-179.11,-173.51,173.6,0,
2251917224.48333,Ascent,0,0,0,170.65,0.16,0.18,217.04,171.75,-175.56,173.61,0,
2251917224.64333,Ascent,0,0,0,159.49,0.16,0.18,208.1,-174.73,-160.07,173.61,0,
2251917224.80333,Ascent,0,0,0,175.91,0.16,0.18,221.65,-176.06,-178.88,173.6,0,
2251917224.96333,Ascent,0,0,0,174,0.16,0.18,223.59,-174.43,-177.73,173.61,0,
2251917225.12333,Ascent,0,0,0,170.11,0.16,0.18,225.03,-171.35,-175.11,173.6,0,
2251917225.28333,Ascent,0,0,0,95.23,0.16,0.18,209.71,98.1,96.84,173.6,0,
2251917225.44333,Ascent,0,0,0,171.1,0.16,0.18,222.39,-178.29,-171.25,173.6,0,
2251917225.60333,Ascent,0,0,0,171.97,0.16,0.18,223.72,-171.98,179.44,173.6,0,
2251917225.76333,Ascent,0,0,0,174.54,0.16,0.18,223.98,-175.26,-177.26,173.59,0,
2251917225.92333,Ascent,0,0,0,152.16,0.16,0.18,224.33,-152.9,-172.54,173.61,0,
2251917226.08333,Ascent,0,0,0,173.87,0.16,0.18,216.4,177.72,-174.31,173.64,0,
2251917226.24333,Ascent,0,0,0,172.82,0.16,0.18,165.98,176.52,-173.7,173.64,0,
2251917226.40333,Ascent,0,0,0,174.35,0.16,0.18,224.87,-176.33,-175.69,173.6,0,
2251917226.56333,Ascent,0,0,0,93.54,0.16,0.18,210.55,95.83,94.46,173.6,0,
2251917226.72333,Ascent,0,0,0,170.98,0.16,0.18,210.83,-178.58,-171.08,173.6,0,
2251917226.88333,Ascent,0,0,0,158.34,0.16,0.18,233.99,-158.81,175.05,173.61,0,
2251917227.04333,Ascent,0,0,0,171.86,0.16,0.18,196.76,173.76,-174.74,173.6,0,
2251917227.20333,Ascent,0,0,0,179.5,0.16,0.18,200.88,-179.62,179.66,173.64,0,
2251917227.36333,Ascent,0,0,0,173.88,0.16,0.18,225.29,177.93,-174.24,173.64,0,
2251917227.52333,Ascent,0,0,0,166.97,0.16,0.18,219.18,-168.7,173.32,173.62,0,
2251917227.68333,Ascent,0,0,0,172.97,0.16,0.18,221.4,176.15,-174.11,173.6,0,
2251917227.84333,Ascent,0,0,0,173.24,0.16,0.18,235.89,-173.36,-178.68,173.6,0,
2251917228.00333,Ascent,0,0,0,175.16,0.16,0.18,162.6,177.25,-176.01,173.64,0,
2251917228.16333,Ascent,0,0,0,98.96,0.16,0.18,209.03,108.39,100.16,173.61,0,
2251917228.32333,Ascent,0,0,0,174.49,0.16,0.18,218.68,175.29,-177.15,173.53,1,
2251917228.48333,Ascent,0,0,0,156.15,0.16,0.18,225.67,-171.01,-157.56,173.54,1,
2251917228.64333,Ascent,0,0,0,164.99,0.16,0.18,214.96,168.78,-169.79,173.6,1,
2251917228.80333,Ascent,0,0,0,175.21,0.16,0.18,151.53,177.84,-175.73,173.64,1,
2251917228.96333,Ascent,0,0,0,172.21,0.16,0.18,213.27,176.16,-173.2,173.58,1,
2251917229.12333,Ascent,0,0,0,162.08,0.16,0.18,211.32,-176.49,162.38,173.61,1,
2251917229.28333,Ascent,0,0,0,163.56,0.16,0.18,221.87,166.37,-170.46,173.66,1,
2251917229.44333,Ascent,0,0,0,167.48,0.16,0.18,215.07,174.36,-168.75,173.61,1,
2251917229.60333,Ascent,0,0,0,163.97,0.16,0.18,224.51,-174.42,-164.87,173.53,1,
2251917229.76333,Ascent,0,0,0,153.8,0.16,0.18,220.75,-154.13,-175.23,173.61,1,
2251917229.92333,Ascent,0,0,0,167.29,0.16,0.18,189.79,171.7,-170.25,173.66,1,
2251917230.08333,Ascent,0,0,0,174.69,0.16,0.18,222.67,-174.89,-178.53,173.6,1,
2251917230.24333,Ascent,0,0,0,154.97,0.16,0.18,213.64,163.43,-160.21,173.6,1,
2251917230.40333,Ascent,0,0,0,165.8,0.16,0.18,221.76,-168.07,-172.06,173.6,1,
2251917230.56333,Ascent,0,0,0,170.46,0.16,0.18,224.28,-177.89,-170.68,173.6,1,
2251917230.72333,Ascent,0,0,0,173.54,0.16,0.18,235.91,-176.39,-174.62,173.6,1,
2251917230.88333,Ascent,0,0,0,174.29,0.16,0.18,206.29,177.46,-174.89,173.6,1,
2251917231.04333,Ascent,0,0,0,172.04,0.16,0.18,213.71,177.65,-172.39,173.6,1,
2251917231.20333,Ascent,0,0,0,141.96,0.16,0.18,247.91,-155.72,-147.4,173.44,1,
2251917231.36333,Ascent,0,0,0,131.86,0.16,0.18,243.44,-171.74,-132.1,173,1,
2251917231.52333,Ascent,0,0,0,124.74,0.16,0.18,244.79,-157.38,-125.91,172.62,1,
2251917231.68333,Ascent,0,0,0,138.41,0.16,0.18,243.53,-171.59,-138.81,172.35,1,
2251917231.84333,Ascent,0,0,0,130.82,0.16,0.18,249.58,-155.21,-133.29,172.15,1,
2251917232.00333,Ascent,0,0,0,129.54,0.16,0.18,232.52,169.81,-129.85,172.09,1,
2251917232.16333,Ascent,0,0,0,170.59,0.16,0.18,202.4,172.9,-173.76,172,1,
2251917232.32333,Ascent,0,0,0,160.91,0.16,0.18,232.16,-172,162.45,171.87,1,
2251917232.48333,Ascent,0,0,0,130.31,0.16,0.18,207.45,171.49,130.54,172.03,1,
2251917232.64333,Ascent,0,0,0,68.43,0.16,0.18,210.25,-68.23,19.37,171.98,1,
2251917232.80333,Ascent,0,0,0,42.27,0.16,0.18,179.11,12.31,41.43,171.98,1,
2251917232.96333,Ascent,0,0,0,74.56,0.16,0.18,212.26,-31.98,74.34,171.98,1,
2251917233.12332,Ascent,0,0,0,99.47,0.16,0.18,193.06,-111.85,100.39,171.96,1,
2251917233.28332,Ascent,0,0,0,160.34,0.16,0.18,220.54,-171.32,162.09,172.01,1,
2251917233.44332,Ascent,0,0,0,118.54,0.16,0.18,213.5,-147.03,120.16,172.02,1,
2251917233.60332,Ascent,0,0,0,101.34,0.16,0.18,192.38,120.66,102.04,172.01,1,
2251917233.76332,Ascent,0,0,0,130.09,0.16,0.18,209.91,-160.22,131.44,172.01,1,
2251917233.92332,Ascent,0,0,0,131.23,0.16,0.18,210.99,-161.09,132.57,172.01,1,
2251917234.08332,Ascent,0,0,0,103.71,0.16,0.18,209.04,-129.88,104.31,172.02,1,
2251917234.24332,Ascent,0,0,0,173.47,0.16,0.18,218.36,179.15,-173.52,159.25,1,
2251917234.40332,Ascent,0,0,0,174.23,0.16,0.18,217.87,179.11,-174.28,113.78,1,
2251917234.56332,Ascent,0,1,1,175.64,0.16,0.18,217.22,179.09,-175.7,100.1,1,
2251917234.72332,Ascent,0,1,1,177.1,0.16,0.18,216.58,179.08,-177.18,95.73,1,
2251917234.88332,Ascent,0,1,1,178.32,0.16,0.18,216.02,179.07,-178.51,93.88,1,
2251917235.04332,Ascent,0,2,2,179.03,0.16,0.18,215.58,179.08,-179.61,92.75,1,
2251917235.20332,Ascent,0,2,2,178.92,0.16,0.18,215.27,179.09,179.55,91.99,1,
2251917235.36332,Ascent,0,2,2,178.53,0.16,0.18,215.06,179.11,178.95,91.42,1,
2251917235.52332,Ascent,0,2,2,178.21,0.16,0.18,214.94,179.13,178.56,90.95,1,
2251917235.68332,Ascent,0,3,3,178.02,0.16,0.18,214.89,179.15,178.33,90.57,1,
2251917235.84332,Ascent,0,3,3,177.95,0.16,0.18,214.88,179.17,178.22,90.24,1,
2251917236.00332,Ascent,0,3,3,177.97,0.16,0.18,214.92,179.19,178.22,89.93,1,
2251917236.16332,Ascent,0,4,4,178.05,0.16,0.18,214.97,179.2,178.28,89.65,1,
2251917236.32332,Ascent,0,4,4,178.16,0.16,0.18,215.04,179.21,178.38,89.42,1,
2251917236.48332,Ascent,0,4,4,178.28,0.16,0.18,215.11,179.22,178.5,89.19,1,
2251917236.64332,Ascent,0,5,5,178.4,0.16,0.18,215.18,179.23,178.62,89.29,1,
2251917236.80332,Ascent,0,5,5,178.51,0.16,0.18,215.24,179.24,178.73,91.29,1,
2251917236.96332,Ascent,0,5,5,178.6,0.16,0.18,215.29,179.24,178.82,106.2,1,
2251917237.12332,Ascent,0,5,5,178.66,0.16,0.18,215.33,179.24,178.9,-127.49,1,
2251917237.28332,Ascent,0,6,6,178.71,0.16,0.18,215.36,179.24,178.96,-111.2,1,
2251917237.44332,Ascent,0,6,6,178.75,0.16,0.18,215.38,179.23,179,-106.15,1,
2251917237.60332,Ascent,0,6,6,178.77,0.16,0.18,215.4,179.23,179.04,-102.32,1,
2251917237.76332,Ascent,0,7,7,178.79,0.16,0.18,215.42,179.24,179.06,-97.38,1,
2251917237.92332,Ascent,0,7,7,178.8,0.16,0.18,215.44,179.24,179.07,-90.17,1,
2251917238.08332,Ascent,0,7,7,178.81,0.16,0.18,215.45,179.24,179.08,-82.4,1,
2251917238.24332,Ascent,0,8,8,178.82,0.16,0.18,215.47,179.24,179.09,-76.7,1,
2251917238.40332,Ascent,0,8,8,178.83,0.16,0.18,215.48,179.25,179.09,-75.06,1,
2251917238.56332,Ascent,0,8,8,178.83,0.16,0.19,215.5,179.25,179.1,-75.87,1,
2251917238.72332,Ascent,0,9,9,178.85,0.16,0.19,215.52,179.26,179.11,-77.78,1,
2251917238.88332,Ascent,0,9,9,178.86,0.16,0.19,215.54,179.26,179.12,-79.66,1,
2251917239.04332,Ascent,0,9,9,178.87,0.16,0.19,215.55,179.27,179.13,-81.67,1,
2251917239.20332,Ascent,0,10,10,178.88,0.16,0.19,215.57,179.27,179.14,-83.41,1,
2251917239.36332,Ascent,0,10,10,178.89,0.16,0.19,215.59,179.27,179.15,-84.64,1,
2251917239.52332,Ascent,0,10,10,178.9,0.16,0.19,215.61,179.27,179.16,-85.7,1,
2251917239.68332,Ascent,0,11,11,178.91,0.16,0.19,215.62,179.27,179.17,-86.59,1,
2251917239.84332,Ascent,0,11,11,178.92,0.16,0.19,215.64,179.28,179.19,-87.28,1,
2251917240.00332,Ascent,0,11,11,178.93,0.16,0.19,215.66,179.28,179.2,-87.69,1,
2251917240.16332,Ascent,0,12,11,178.95,0.16,0.19,215.69,179.28,179.21,-86.91,1,
2251917240.32332,Ascent,0,12,12,178.99,0.16,0.19,215.71,179.27,179.29,-82.04,1,
2251917240.48332,Ascent,0,12,12,179.01,0.16,0.2,215.71,179.21,179.4,-21.54,1,
2251917240.64332,Ascent,0,12,12,179.02,0.16,0.2,215.72,179.16,179.5,54.41,1,
2251917240.80332,Ascent,0,13,13,179.02,0.16,0.2,215.72,179.12,179.56,61.84,1,
2251917240.96332,Ascent,0,13,13,179.01,0.16,0.2,215.73,179.1,179.59,64.16,1,
2251917241.12332,Ascent,0,13,13,179,0.16,0.2,215.74,179.1,179.59,65.5,1,
2251917241.28332,Ascent,0,14,14,179.01,0.16,0.2,215.78,179.14,179.56,67.43,1,
2251917241.44332,Ascent,0,14,14,179.02,0.16,0.2,215.83,179.19,179.52,70.91,1,
2251917241.60332,Ascent,0,14,14,179.01,0.16,0.2,215.86,179.23,179.47,75.77,1,
2251917241.76332,Ascent,0,15,15,178.99,0.16,0.21,215.87,179.26,179.42,82.08,1,
2251917241.92332,Ascent,0,15,15,178.95,0.16,0.21,215.88,179.26,179.37,89.97,1,
2251917242.08332,Ascent,0,15,15,178.91,0.16,0.21,215.85,179.23,179.35,99.54,1,
2251917242.24332,Ascent,0,16,16,178.86,0.16,0.21,215.81,179.16,179.34,109.28,1,
2251917242.40332,Ascent,0,16,16,178.79,0.16,0.21,215.79,179.1,179.28,121.59,1,
2251917242.56332,Ascent,0,16,16,178.77,0.16,0.21,215.83,179.08,179.25,152.18,1,
2251917242.72332,Ascent,0,17,17,178.82,0.16,0.21,215.89,179.1,179.27,-161.25,1,
2251917242.88332,Ascent,0,17,17,178.87,0.16,0.22,215.95,179.11,179.31,-134.08,1,
2251917243.04332,Ascent,0,17,17,178.93,0.16,0.22,215.99,179.13,179.39,-125.9,1,
2251917243.20332,Ascent,0,18,18,178.97,0.16,0.22,216.01,179.13,179.46,-124.18,1,
2251917243.36332,Ascent,0,18,18,178.98,0.16,0.22,216.01,179.11,179.53,-124.5,1,
2251917243.52332,Ascent,0,18,18,178.96,0.16,0.22,216,179.08,179.58,-124.75,1,
2251917243.68331,Ascent,0,19,19,178.94,0.16,0.23,215.99,179.04,179.61,-123.72,1,
2251917243.84331,Ascent,0,19,19,178.92,0.16,0.23,215.99,179.01,179.63,-120.84,1,
2251917244.00331,Ascent,0,20,19,178.91,0.16,0.23,216,178.98,179.65,-115.93,1,
2251917244.16331,Ascent,0,20,20,178.9,0.16,0.23,216.02,178.96,179.66,-108.87,1,
2251917244.32331,Ascent,0,20,20,178.91,0.16,0.24,216.05,178.95,179.68,-100.58,1,
2251917244.48331,Ascent,0,21,21,178.92,0.16,0.24,216.08,178.95,179.7,-92.43,1,
2251917244.64331,Ascent,0,21,21,178.95,0.16,0.24,216.12,178.96,179.73,-85.28,1,
2251917244.80331,Ascent,0,21,21,178.97,0.16,0.24,216.16,178.97,179.76,-79.2,1,
2251917244.96331,Ascent,0,22,22,179,0.16,0.25,216.2,178.98,179.79,-74.28,1,
2251917245.12331,Ascent,0,22,22,179.02,0.16,0.25,216.24,179,179.81,-70.24,1,
2251917245.28331,Ascent,0,22,22,179.04,0.16,0.25,216.28,179.02,179.84,-66.96,1,
2251917245.44331,Ascent,0,23,23,179.06,0.16,0.25,216.31,179.04,179.86,-64.32,1,
2251917245.60331,Ascent,0,23,23,179.07,0.16,0.26,216.34,179.05,179.87,-62.15,1,
2251917245.76331,Ascent,0,23,23,179.08,0.16,0.26,216.37,179.07,179.88,-60.43,1,
2251917245.92331,Ascent,0,24,24,179.09,0.16,0.26,216.4,179.08,179.89,-59.03,1,
2251917246.08331,Ascent,0,24,24,179.1,0.16,0.27,216.43,179.09,179.89,-57.88,1,
2251917246.24331,Ascent,0,25,25,179.1,0.16,0.27,216.45,179.09,179.9,-56.52,1,
2251917246.40331,Ascent,0,25,25,179.1,0.16,0.27,216.48,179.1,179.9,-55.14,1,
2251917246.56331,Ascent,0,25,25,179.11,0.16,0.27,216.5,179.1,179.9,-53.19,1,
2251917246.72331,Ascent,0,26,26,179.11,0.16,0.28,216.53,179.11,179.9,-50.19,1,
2251917246.88331,Ascent,0,26,26,179.11,0.16,0.28,216.56,179.11,179.9,-46.09,1,
2251917247.04331,Ascent,0,26,26,179.12,0.16,0.28,216.58,179.12,179.9,-41.11,1,
2251917247.20331,Ascent,0,27,27,179.12,0.16,0.29,216.61,179.12,179.9,-36.33,1,
2251917247.36331,Ascent,0,27,27,179.12,0.16,0.29,216.63,179.12,179.9,-30.42,1,
2251917247.52331,Ascent,0,28,28,179.13,0.16,0.3,216.66,179.13,179.9,-25.29,1,
2251917247.68331,Ascent,0,28,28,179.13,0.16,0.3,216.69,179.13,179.9,-20.43,1,
2251917247.84331,Ascent,0,28,28,179.14,0.16,0.3,216.72,179.13,179.9,-16.13,1,
2251917248.00331,Ascent,0,29,29,179.14,0.16,0.31,216.74,179.14,179.9,-11.26,1,
2251917248.16331,Ascent,0,29,29,179.15,0.16,0.31,216.77,179.15,179.9,-5.67,1,
2251917248.32331,Ascent,0,30,30,179.16,0.16,0.31,216.8,179.15,179.9,0.92,1,
2251917248.48331,Ascent,0,30,30,179.16,0.16,0.32,216.83,179.16,179.9,8.53,1,
2251917248.64331,Ascent,0,30,30,179.17,0.16,0.32,216.86,179.17,179.9,17.56,1,
2251917248.80331,Ascent,0,31,31,179.17,0.16,0.33,216.89,179.17,179.9,27.35,1,
2251917248.96331,Ascent,0,31,31,179.18,0.16,0.33,216.92,179.18,179.9,37.66,1,
2251917249.12331,Ascent,0,31,31,179.18,0.16,0.34,216.95,179.18,179.9,48.13,1,
2251917249.28331,Ascent,0,32,32,179.19,0.16,0.34,216.98,179.19,179.9,58.85,1,
2251917249.44331,Ascent,0,32,32,179.19,0.16,0.35,217,179.19,179.89,68.41,1,
2251917249.60331,Ascent,0,33,33,179.19,0.16,0.35,217.03,179.2,179.89,76.34,1,
2251917249.76331,Ascent,0,33,33,179.2,0.16,0.35,217.06,179.2,179.89,82.12,1,
2251917249.92331,Ascent,0,34,34,179.2,0.16,0.36,217.09,179.21,179.89,85.87,1,
2251917250.08331,Ascent,0,34,34,179.2,0.16,0.36,217.12,179.21,179.89,88.44,1,
2251917250.24331,Ascent,0,34,34,179.2,0.16,0.37,217.15,179.21,179.89,89.88,1,
2251917250.40331,Ascent,0,35,35,179.21,0.16,0.37,217.18,179.22,179.88,90.91,1,
2251917250.56331,Ascent,0,35,35,179.21,0.16,0.38,217.21,179.22,179.88,91.31,1,
2251917250.72331,Ascent,0,36,36,179.21,0.16,0.38,217.24,179.22,179.88,92,1,
2251917250.88331,Ascent,0,36,36,179.22,0.16,0.39,217.26,179.23,179.88,92.88,1,
2251917251.04331,Ascent,0,36,36,179.22,0.16,0.39,217.29,179.23,179.88,93.54,1,
2251917251.20331,Ascent,0,37,37,179.22,0.16,0.4,217.32,179.23,179.88,94.44,1,
2251917251.36331,Ascent,0,37,37,179.23,0.16,0.41,217.36,179.24,179.88,95.19,1,
2251917251.52331,Ascent,1,38,38,179.23,0.16,0.41,217.39,179.24,179.87,97.08,1,
2251917251.68331,Ascent,1,38,38,179.23,0.16,0.42,217.42,179.25,179.87,98.34,1,
2251917251.84331,Ascent,1,38,38,179.24,0.16,0.42,217.45,179.25,179.87,99.08,1,
2251917252.00331,Ascent,1,39,39,179.24,0.16,0.43,217.48,179.25,179.87,99.99,1,
2251917252.16331,Ascent,1,39,39,179.24,0.16,0.43,217.51,179.26,179.87,100.97,1,
2251917252.32331,Ascent,1,40,40,179.25,0.16,0.44,217.54,179.26,179.87,101.64,1,
2251917252.48331,Ascent,1,40,40,179.25,0.16,0.45,217.57,179.26,179.87,102.06,1,
2251917252.64331,Ascent,1,41,41,179.25,0.16,0.45,217.6,179.26,179.87,103.69,1,
2251917252.80331,Ascent,1,41,41,179.25,0.16,0.46,217.63,179.27,179.87,104.39,1,
2251917252.96331,Ascent,1,41,41,179.26,0.16,0.46,217.67,179.27,179.86,105.15,1,
2251917253.12331,Ascent,1,42,42,179.26,0.16,0.47,217.7,179.27,179.86,105.66,1,
2251917253.28331,Ascent,1,42,42,179.26,0.16,0.48,217.73,179.28,179.86,105.8,1,
2251917253.44331,Ascent,1,43,43,179.27,0.16,0.48,217.76,179.28,179.86,104.97,1,
2251917253.60331,Ascent,1,43,43,179.27,0.16,0.49,217.8,179.28,179.86,103.83,1,
2251917253.76331,Ascent,1,44,44,179.27,0.16,0.5,217.83,179.29,179.86,103.19,1,
2251917253.92331,Ascent,1,44,44,179.27,0.16,0.5,217.86,179.29,179.86,103.07,1,
2251917254.0833,Ascent,1,44,44,179.28,0.16,0.51,217.9,179.29,179.86,102.33,1,
2251917254.2433,Ascent,1,45,45,179.28,0.16,0.52,217.93,179.3,179.86,103.36,1,
2251917254.4033,Ascent,1,45,45,179.28,0.16,0.52,217.96,179.3,179.86,103.85,1,
2251917254.5633,Ascent,1,46,46,179.28,0.16,0.53,218,179.3,179.85,105.89,1,
2251917254.7233,Ascent,1,46,46,179.29,0.16,0.54,218.03,179.3,179.85,108.07,1,
2251917254.8833,Ascent,1,47,47,179.29,0.16,0.54,218.06,179.31,179.85,109.96,1,
2251917255.0433,Ascent,1,47,47,179.29,0.16,0.55,218.1,179.31,179.85,113.83,1,
2251917255.2033,Ascent,1,48,48,179.3,0.16,0.56,218.13,179.31,179.85,115.72,1,
2251917255.3633,Ascent,1,48,48,179.3,0.16,0.57,218.17,179.32,179.85,115.33,1,
2251917255.5233,Ascent,1,48,48,179.3,0.16,0.57,218.2,179.32,179.85,110.67,1,
2251917255.6833,Ascent,1,49,49,179.3,0.16,0.58,218.24,179.32,179.85,107.8,1,
2251917255.8433,Ascent,1,49,49,179.31,0.16,0.59,218.27,179.32,179.85,106,1,
2251917256.0033,Ascent,1,50,50,179.31,0.16,0.6,218.31,179.33,179.85,105.15,1,
2251917256.1633,Ascent,1,50,50,179.31,0.16,0.6,218.34,179.33,179.85,104.24,1,
2251917256.3233,Ascent,1,51,51,179.3,0.16,0.61,218.39,179.33,179.8,-103.58,1,
2251917256.4833,Ascent,1,51,51,179.3,0.16,0.62,218.44,179.34,179.73,-96.34,1,
2251917256.6433,Ascent,1,52,52,179.29,0.16,0.63,218.48,179.35,179.67,-95.51,1,
2251917256.8033,Ascent,1,52,52,179.28,0.16,0.63,218.51,179.34,179.59,-94.28,1,
2251917256.9633,Ascent,1,52,52,179.27,0.16,0.64,218.55,179.33,179.53,-92.24,1,
2251917257.1233,Ascent,1,53,53,179.26,0.16,0.65,218.58,179.32,179.46,-90.45,1,
2251917257.2833,Ascent,1,53,53,179.25,0.16,0.66,218.6,179.29,179.41,-88.08,1,
2251917257.4433,Ascent,1,54,54,179.25,0.16,0.67,218.62,179.25,179.37,-84.92,1,
2251917257.6033,Ascent,1,54,54,179.25,0.16,0.68,218.65,179.2,179.35,-81.78,1,
2251917257.7633,Ascent,1,55,55,179.26,0.17,0.68,218.68,179.17,179.34,-78.64,1,
2251917257.9233,Ascent,1,55,55,179.28,0.17,0.69,218.72,179.13,179.35,-75.66,1,
2251917258.0833,Ascent,1,56,56,179.3,0.17,0.7,218.76,179.11,179.38,-72.87,1,
2251917258.2433,Ascent,1,56,56,179.32,0.17,0.71,218.79,179.09,179.42,-70.27,1,
2251917258.4033,Ascent,1,57,57,179.34,0.17,0.72,218.83,179.08,179.48,-67.84,1,
2251917258.5633,Ascent,1,57,57,179.36,0.17,0.73,218.87,179.09,179.55,-65.52,1,
2251917258.7233,Ascent,1,58,58,179.37,0.17,0.74,218.9,179.1,179.63,-63.31,1,
2251917258.8833,Ascent,1,58,58,179.37,0.17,0.75,218.93,179.12,179.71,-61.18,1,
2251917259.0433,Ascent,1,58,58,179.38,0.17,0.75,218.97,179.15,179.78,-59.17,1,
2251917259.2033,Ascent,1,59,59,179.4,0.17,0.76,219.02,179.19,179.82,-57.62,1,
2251917259.3633,Ascent,1,59,59,179.42,0.17,0.77,219.06,179.23,179.84,-57.05,1,
2251917259.5233,Ascent,1,60,60,179.43,0.17,0.78,219.09,179.26,179.85,-56.8,1,
2251917259.6833,Ascent,1,60,60,179.43,0.17,0.79,219.12,179.27,179.85,-56.86,1,
2251917259.8433,Ascent,1,61,61,179.43,0.17,0.8,219.13,179.27,179.85,-56.54,1,
2251917260.0033,Ascent,1,61,61,179.41,0.17,0.81,219.14,179.25,179.85,-55.29,1,
2251917260.1633,Ascent,1,62,62,179.39,0.17,0.82,219.14,179.23,179.87,-53.73,1,
2251917260.3233,Ascent,1,62,62,179.36,0.17,0.83,219.14,179.2,179.89,-51.14,1,
2251917260.4833,Ascent,1,63,63,179.34,0.17,0.84,219.15,179.17,179.92,-48.3,1,
2251917260.6433,Ascent,1,63,63,179.31,0.17,0.85,219.15,179.15,179.97,-44.96,1,
2251917260.8033,Ascent,1,64,64,179.29,0.17,0.86,219.16,179.13,-179.99,-41.63,1,
2251917260.9633,Ascent,1,64,64,179.26,0.17,0.87,219.17,179.12,-179.93,-38.09,1,
2251917261.1233,Ascent,1,65,65,179.24,0.17,0.88,219.19,179.12,-179.88,-34.67,1,
2251917261.2833,Ascent,1,65,65,179.22,0.17,0.89,219.2,179.13,-179.83,-31.35,1,
2251917261.4433,Ascent,1,66,66,179.19,0.17,0.9,219.22,179.14,-179.78,-28.25,1,
2251917261.6033,Ascent,1,66,66,179.17,0.17,0.91,219.23,179.16,-179.73,-25.32,1,
2251917261.7633,Ascent,1,67,67,179.15,0.17,0.92,219.25,179.18,-179.69,-22.64,1,
2251917261.9233,Ascent,1,67,67,179.14,0.17,0.93,219.27,179.2,-179.66,-20.19,1,
2251917262.0833,Ascent,1,68,68,179.12,0.17,0.94,219.29,179.21,-179.63,-17.97,1,
2251917262.2433,Ascent,1,68,68,179.11,0.17,0.95,219.3,179.22,-179.61,-16.05,1,
2251917262.4033,Ascent,1,69,69,179.09,0.17,0.97,219.32,179.22,-179.6,-14.33,1,
2251917262.5633,Ascent,1,69,69,179.07,0.17,0.98,219.33,179.22,-179.59,-12.84,1,
2251917262.7233,Ascent,1,70,70,179.05,0.17,0.99,219.34,179.22,-179.58,-11.56,1,
2251917262.8833,Ascent,1,70,70,179.02,0.17,1,219.35,179.22,-179.58,-10.52,1,
2251917263.0433,Ascent,1,71,71,179,0.17,1.01,219.36,179.22,-179.58,-9.66,1,
2251917263.2033,Ascent,1,71,71,178.96,0.17,1.02,219.36,179.22,-179.58,-8.91,1,
2251917263.3633,Ascent,1,72,72,178.93,0.17,1.03,219.35,179.22,-179.57,-8.17,1,
2251917263.5233,Ascent,1,72,72,178.89,0.17,1.04,219.34,179.22,-179.56,-7.46,1,
2251917263.6833,Ascent,1,73,73,178.84,0.17,1.05,219.33,179.23,-179.55,-6.72,1,
2251917263.8433,Ascent,1,73,73,178.8,0.17,1.07,219.32,179.23,-179.54,-5.98,1,
2251917264.0033,Ascent,1,74,74,178.76,0.17,1.08,219.31,179.25,-179.52,-5.24,1,
2251917264.1633,Ascent,1,75,75,178.71,0.17,1.09,219.3,179.26,-179.51,-4.5,1,
2251917264.3233,Ascent,1,75,75,178.67,0.17,1.1,219.29,179.27,-179.49,-3.78,1,
2251917264.4833,Ascent,1,76,76,178.63,0.17,1.11,219.27,179.28,-179.48,-3.1,1,
2251917264.64329,Ascent,1,76,76,178.59,0.17,1.13,219.26,179.29,-179.47,-2.46,1,
2251917264.80329,Ascent,1,77,77,178.55,0.17,1.14,219.25,179.3,-179.46,-1.88,1,
2251917264.96329,Ascent,1,77,77,178.5,0.17,1.15,219.23,179.31,-179.45,-1.37,1,
2251917265.12329,Ascent,1,78,78,178.46,0.17,1.16,219.21,179.32,-179.44,-0.92,1,
2251917265.28329,Ascent,1,78,78,178.42,0.17,1.17,219.2,179.33,-179.44,-0.55,1,
2251917265.44329,Ascent,1,79,79,178.37,0.17,1.19,219.18,179.33,-179.44,-0.25,1,
2251917265.60329,Ascent,1,79,79,178.33,0.17,1.2,219.15,179.34,-179.44,0,1,
2251917265.76329,Ascent,1,80,80,178.28,0.17,1.21,219.13,179.35,-179.44,0.19,1,
2251917265.92329,Ascent,1,80,80,178.24,0.17,1.23,219.1,179.36,-179.43,0.35,1,
2251917266.08329,Ascent,1,81,81,178.19,0.17,1.24,219.07,179.37,-179.43,0.49,1,
2251917266.24329,Ascent,1,82,82,178.14,0.17,1.25,219.04,179.38,-179.43,0.61,1,
2251917266.40329,Ascent,1,82,82,178.09,0.17,1.26,219,179.39,-179.43,0.71,1,
2251917266.56329,Ascent,1,83,83,178.04,0.18,1.28,218.97,179.4,-179.43,0.81,1,
2251917266.72329,Ascent,1,83,83,177.99,0.18,1.29,218.93,179.41,-179.43,0.9,1,
2251917266.88329,Ascent,1,84,84,177.94,0.18,1.3,218.89,179.42,-179.43,0.97,1,
2251917267.04329,Ascent,1,84,84,177.89,0.18,1.32,218.85,179.43,-179.43,1.03,1,
2251917267.20329,Ascent,1,85,85,177.84,0.18,1.33,218.8,179.44,-179.43,1.07,1,
2251917267.36329,Ascent,1,86,85,177.79,0.18,1.34,218.76,179.45,-179.43,1.11,1,
2251917267.52329,Ascent,1,86,86,177.74,0.18,1.36,218.71,179.47,-179.43,1.13,1,
2251917267.68329,Ascent,1,87,87,177.69,0.18,1.37,218.66,179.48,-179.43,1.14,1,
2251917267.84329,Ascent,2,87,87,177.64,0.18,1.39,218.61,179.49,-179.43,1.15,1,
2251917268.00329,Ascent,2,88,88,177.58,0.18,1.4,218.55,179.5,-179.43,1.16,1,
2251917268.16329,Ascent,2,88,88,177.53,0.18,1.41,218.49,179.52,-179.44,1.16,1,
2251917268.32329,Ascent,2,89,89,177.48,0.18,1.43,218.44,179.53,-179.44,1.17,1,
2251917268.48329,Ascent,2,89,89,177.42,0.18,1.44,218.37,179.55,-179.44,1.17,1,
2251917268.64329,Ascent,2,90,90,177.37,0.18,1.46,218.31,179.56,-179.44,1.16,1,
2251917268.80329,Ascent,2,91,91,177.32,0.18,1.47,218.25,179.57,-179.44,1.15,1,
2251917268.96329,Ascent,2,91,91,177.26,0.18,1.49,218.18,179.59,-179.44,1.14,1,
2251917269.12329,Ascent,2,92,92,177.21,0.18,1.5,218.11,179.6,-179.44,1.13,1,
2251917269.28329,Ascent,2,92,92,177.15,0.19,1.51,218.04,179.62,-179.44,1.11,1,
2251917269.44329,Ascent,2,93,93,177.1,0.19,1.53,217.97,179.63,-179.44,1.1,1,
2251917269.60329,Ascent,2,94,93,177.04,0.19,1.54,217.89,179.65,-179.45,1.07,1,
2251917269.76329,Ascent,2,94,94,176.99,0.19,1.56,217.81,179.66,-179.45,1.05,1,
2251917269.92329,Ascent,2,95,95,176.93,0.19,1.57,217.73,179.68,-179.45,1.02,1,
2251917270.08329,Ascent,2,95,95,176.88,0.19,1.59,217.65,179.69,-179.45,1,1,
2251917270.24329,Ascent,2,96,96,176.82,0.19,1.6,217.57,179.71,-179.45,0.98,1,
2251917270.40329,Ascent,2,97,96,176.76,0.19,1.62,217.48,179.72,-179.45,0.96,1,
2251917270.56329,Ascent,2,97,97,176.71,0.19,1.64,217.39,179.74,-179.45,0.94,1,
2251917270.72329,Ascent,2,98,98,176.65,0.19,1.65,217.3,179.75,-179.46,0.92,1,
2251917270.88329,Ascent,2,98,98,176.59,0.19,1.67,217.21,179.77,-179.46,0.89,1,
2251917271.04329,Ascent,2,99,99,176.54,0.19,1.68,217.11,179.79,-179.46,0.86,1,
2251917271.20329,Ascent,2,100,99,176.48,0.19,1.7,217.02,179.8,-179.46,0.84,1,
2251917271.36329,Ascent,2,100,100,176.42,0.2,1.71,216.92,179.82,-179.46,0.81,1,
2251917271.52329,Ascent,2,101,101,176.36,0.2,1.73,216.82,179.84,-179.46,0.78,1,
2251917271.68329,Ascent,2,101,101,176.31,0.2,1.75,216.72,179.85,-179.47,0.76,1,
2251917271.84329,Ascent,2,102,102,176.25,0.2,1.76,216.61,179.87,-179.47,0.73,1,
2251917272.00329,Ascent,2,103,102,176.19,0.2,1.78,216.51,179.89,-179.47,0.71,1,
2251917272.16329,Ascent,2,103,103,176.13,0.2,1.8,216.4,179.91,-179.47,0.69,1,
2251917272.32329,Ascent,2,104,104,176.08,0.2,1.81,216.29,179.92,-179.47,0.66,1,
2251917272.48329,Ascent,2,104,104,176.02,0.2,1.83,216.18,179.94,-179.47,0.64,1,
2251917272.64329,Ascent,2,105,105,175.96,0.2,1.85,216.07,179.96,-179.48,0.61,1,
2251917272.80329,Ascent,2,106,105,175.9,0.21,1.86,215.95,179.98,-179.48,0.59,1,
2251917272.96329,Ascent,2,106,106,175.84,0.21,1.88,215.84,179.99,-179.48,0.57,1,
2251917273.12329,Ascent,2,107,107,175.78,0.21,1.9,215.72,-179.99,-179.48,0.54,1,
2251917273.28329,Ascent,2,108,107,175.72,0.21,1.91,215.6,-179.97,-179.48,0.53,1,
2251917273.44329,Ascent,2,108,108,175.66,0.21,1.93,215.48,-179.95,-179.48,0.51,1,
2251917273.60329,Ascent,2,109,109,175.61,0.21,1.95,215.36,-179.93,-179.49,0.5,1,
2251917273.76329,Ascent,2,110,109,175.55,0.21,1.97,215.23,-179.92,-179.49,0.49,1,
2251917273.92329,Ascent,2,110,110,175.49,0.21,1.98,215.11,-179.9,-179.49,0.47,1,
2251917274.08329,Ascent,2,111,110,175.44,0.22,2,214.98,-179.89,-179.49,0.45,1,
2251917274.24329,Ascent,2,111,111,175.38,0.22,2.02,214.86,-179.88,-179.49,0.43,1,
2251917274.40329,Ascent,2,112,112,175.32,0.22,2.04,214.73,-179.88,-179.49,0.41,1,
2251917274.56329,Ascent,2,113,112,175.27,0.22,2.05,214.6,-179.87,-179.5,0.4,1,
2251917274.72329,Ascent,2,113,113,175.21,0.22,2.07,214.47,-179.87,-179.5,0.38,1,
2251917274.88329,Ascent,2,114,114,175.15,0.22,2.09,214.33,-179.87,-179.5,0.37,1,
2251917275.04328,Ascent,2,115,114,175.09,0.22,2.11,214.2,-179.87,-179.5,0.36,1,
2251917275.20328,Ascent,2,115,115,175.03,0.23,2.13,214.06,-179.86,-179.5,0.34,1,
2251917275.36328,Ascent,2,116,116,174.97,0.23,2.15,213.93,-179.86,-179.5,0.33,1,
2251917275.52328,Ascent,2,117,116,174.9,0.23,2.16,213.79,-179.86,-179.5,0.31,1,
2251917275.68328,Ascent,2,117,117,174.84,0.23,2.18,213.65,-179.86,-179.51,0.3,1,
2251917275.84328,Ascent,2,118,117,174.78,0.23,2.2,213.51,-179.86,-179.51,0.29,1,
2251917276.00328,Ascent,2,119,118,174.72,0.23,2.22,213.37,-179.85,-179.51,0.28,1,
2251917276.16328,Ascent,2,119,119,174.65,0.23,2.24,213.22,-179.85,-179.51,0.27,1,
2251917276.32328,Ascent,2,120,119,174.59,0.24,2.26,213.08,-179.85,-179.51,0.26,1,
2251917276.48328,Ascent,2,121,120,174.52,0.24,2.28,212.94,-179.85,-179.51,0.24,1,
2251917276.64328,Ascent,2,121,121,174.46,0.24,2.3,212.79,-179.85,-179.52,0.23,1,
2251917276.80328,Ascent,2,122,121,174.39,0.24,2.32,212.64,-179.85,-179.52,0.22,1,
2251917276.96328,Ascent,2,123,122,174.33,0.24,2.34,212.5,-179.84,-179.52,0.21,1,
2251917277.12328,Ascent,2,123,123,174.26,0.25,2.36,212.35,-179.84,-179.52,0.21,1,
2251917277.28328,Ascent,2,124,123,174.2,0.25,2.38,212.2,-179.84,-179.52,0.2,1,
2251917277.44328,Ascent,3,125,124,174.13,0.25,2.4,212.05,-179.84,-179.52,0.19,1,
2251917277.60328,Ascent,3,125,125,174.06,0.25,2.42,211.9,-179.84,-179.52,0.19,1,
2251917277.76328,Ascent,3,126,125,173.99,0.25,2.44,211.75,-179.84,-179.52,0.18,1,
2251917277.92328,Ascent,3,127,126,173.93,0.26,2.46,211.59,-179.84,-179.53,0.17,1,
2251917278.08328,Ascent,3,127,127,173.86,0.26,2.48,211.44,-179.84,-179.53,0.16,1,
2251917278.24328,Ascent,3,128,127,173.79,0.26,2.5,211.29,-179.83,-179.53,0.16,1,
2251917278.40328,Ascent,3,129,128,173.72,0.26,2.52,211.13,-179.83,-179.53,0.15,1,
2251917278.56328,Ascent,3,129,129,173.65,0.26,2.54,210.98,-179.83,-179.53,0.15,1,
2251917278.72328,Ascent,3,130,129,173.58,0.27,2.56,210.82,-179.83,-179.53,0.14,1,
2251917278.88328,Ascent,3,131,130,173.51,0.27,2.58,210.67,-179.83,-179.54,0.13,1,
2251917279.04328,Ascent,3,132,131,173.44,0.27,2.6,210.51,-179.83,-179.54,0.13,1,
2251917279.20328,Ascent,3,132,131,173.36,0.27,2.62,210.35,-179.83,-179.54,0.12,1,
2251917279.36328,Ascent,3,133,132,173.29,0.28,2.64,210.2,-179.83,-179.54,0.12,1,
2251917279.52328,Ascent,3,134,133,173.22,0.28,2.67,210.04,-179.83,-179.54,0.12,1,
2251917279.68328,Ascent,3,134,133,173.15,0.28,2.69,209.88,-179.83,-179.54,0.11,1,
2251917279.84328,Ascent,3,135,134,173.07,0.28,2.71,209.72,-179.83,-179.54,0.11,1,
2251917280.00328,Ascent,3,136,135,173,0.29,2.73,209.56,-179.83,-179.54,0.11,1,
2251917280.16328,Ascent,3,137,136,172.92,0.29,2.75,209.41,-179.83,-179.55,0.1,1,
2251917280.32328,Ascent,3,137,136,172.85,0.29,2.77,209.25,-179.83,-179.55,0.1,1,
2251917280.48328,Ascent,3,138,137,172.77,0.29,2.8,209.09,-179.83,-179.55,0.1,1,
2251917280.64328,Ascent,3,139,138,172.7,0.3,2.82,208.93,-179.83,-179.55,0.09,1,
2251917280.80328,Ascent,3,139,138,172.62,0.3,2.84,208.77,-179.82,-179.55,0.09,1,
2251917280.96328,Ascent,3,140,139,172.55,0.3,2.86,208.61,-179.82,-179.55,0.08,1,
2251917281.12328,Ascent,3,141,140,172.47,0.3,2.89,208.45,-179.82,-179.55,0.08,1,
2251917281.28328,Ascent,3,142,140,172.39,0.31,2.91,208.29,-179.82,-179.56,0.08,1,
2251917281.44328,Ascent,3,142,141,172.31,0.31,2.93,208.13,-179.82,-179.56,0.07,1,
2251917281.60328,Ascent,3,143,142,172.24,0.31,2.95,207.97,-179.82,-179.56,0.07,1,
2251917281.76328,Ascent,3,144,143,172.16,0.32,2.98,207.81,-179.82,-179.56,0.07,1,
2251917281.92328,Ascent,3,145,143,172.08,0.32,3,207.65,-179.82,-179.56,0.07,1,
2251917282.08328,Ascent,3,145,144,172,0.32,3.02,207.5,-179.82,-179.56,0.07,1,
2251917282.24328,Ascent,3,146,145,171.92,0.33,3.05,207.34,-179.82,-179.56,0.06,1,
2251917282.40328,Ascent,3,147,145,171.84,0.33,3.07,207.18,-179.82,-179.57,0.06,1,
2251917282.56328,Ascent,3,148,146,171.76,0.33,3.09,207.02,-179.82,-179.57,0.06,1,
2251917282.72328,Ascent,3,148,147,171.68,0.34,3.12,206.86,-179.82,-179.57,0.05,1,
2251917282.88328,Ascent,3,149,148,171.6,0.34,3.14,206.7,-179.82,-179.57,0.05,1,
2251917283.04328,Ascent,3,150,148,171.51,0.34,3.16,206.55,-179.82,-179.57,0.05,1,
2251917283.20328,Ascent,3,151,149,171.43,0.35,3.19,206.39,-179.82,-179.57,0.05,1,
2251917283.36328,Ascent,3,151,150,171.35,0.35,3.21,206.23,-179.82,-179.57,0.04,1,
2251917283.52328,Ascent,3,152,150,171.27,0.35,3.24,206.07,-179.82,-179.58,0.04,1,
2251917283.68328,Ascent,3,153,151,171.18,0.36,3.26,205.92,-179.82,-179.58,0.04,1,
2251917283.84328,Ascent,3,154,152,171.1,0.36,3.29,205.76,-179.82,-179.58,0.04,1,
2251917284.00328,Ascent,3,155,153,171.01,0.36,3.31,205.61,-179.82,-179.58,0.04,1,
2251917284.16328,Ascent,3,155,153,170.93,0.37,3.34,205.45,-179.82,-179.58,0.04,1,
2251917284.32328,Ascent,3,156,154,170.84,0.37,3.36,205.3,-179.82,-179.58,0.04,1,
2251917284.48328,Ascent,3,157,155,170.76,0.38,3.39,205.14,-179.82,-179.58,0.04,1,
2251917284.64328,Ascent,4,158,156,170.67,0.38,3.41,204.99,-179.82,-179.58,0.03,1,
2251917284.80328,Ascent,4,158,156,170.59,0.38,3.44,204.84,-179.82,-179.59,0.03,1,
2251917284.96328,Ascent,4,159,157,170.5,0.39,3.46,204.69,-179.81,-179.59,0.03,1,
2251917285.12328,Ascent,4,160,158,170.41,0.39,3.49,204.53,-179.81,-179.59,0.03,1,
2251917285.28328,Ascent,4,161,158,170.33,0.4,3.51,204.38,-179.81,-179.59,0.03,1,
2251917285.44328,Ascent,4,162,159,170.24,0.4,3.54,204.23,-179.81,-179.59,0.03,1,
2251917285.60327,Ascent,4,162,160,170.15,0.4,3.56,204.08,-179.81,-179.59,0.03,1,
2251917285.76327,Ascent,4,163,161,170.06,0.41,3.59,203.93,-179.81,-179.59,0.02,1,
2251917285.92327,Ascent,4,164,161,169.97,0.41,3.62,203.79,-179.81,-179.6,0.02,1,
2251917286.08327,Ascent,4,165,162,169.88,0.42,3.64,203.64,-179.81,-179.6,0.03,1,
2251917286.24327,Ascent,4,166,163,169.79,0.42,3.67,203.49,-179.81,-179.6,0.03,1,
2251917286.40327,Ascent,4,166,164,169.7,0.43,3.69,203.34,-179.81,-179.6,0.03,1,
2251917286.56327,Ascent,4,167,164,169.61,0.43,3.72,203.2,-179.81,-179.6,0.03,1,
2251917286.72327,Ascent,4,168,165,169.52,0.44,3.75,203.05,-179.81,-179.6,0.03,1,
2251917286.88327,Ascent,4,169,166,169.43,0.44,3.77,202.91,-179.81,-179.6,0.03,1,
2251917287.04327,Ascent,4,170,167,169.34,0.45,3.8,202.77,-179.81,-179.6,0.03,1,
2251917287.20327,Ascent,4,170,167,169.25,0.45,3.83,202.62,-179.81,-179.6,0.03,1,
2251917287.36327,Ascent,4,171,168,169.15,0.46,3.86,202.48,-179.81,-179.61,0.02,1,
2251917287.52327,Ascent,4,172,169,169.06,0.46,3.88,202.34,-179.81,-179.61,0.02,1,
2251917287.68327,Ascent,4,173,170,168.97,0.47,3.91,202.2,-179.81,-179.61,0.02,1,
2251917287.84327,Ascent,4,174,171,168.87,0.47,3.94,202.06,-179.81,-179.61,0.02,1,
2251917288.00327,Ascent,4,175,171,168.78,0.48,3.97,201.92,-179.81,-179.61,0.02,1,
2251917288.16327,Ascent,4,175,172,168.69,0.48,3.99,201.78,-179.81,-179.61,0.02,1,
2251917288.32327,Ascent,4,176,173,168.59,0.49,4.02,201.65,-179.81,-179.61,0.02,1,
2251917288.48327,Ascent,4,177,174,168.5,0.49,4.05,201.51,-179.81,-179.61,0.02,1,
2251917288.64327,Ascent,4,178,174,168.4,0.5,4.08,201.37,-179.81,-179.61,0.03,1,
2251917288.80327,Ascent,4,179,175,168.31,0.5,4.11,201.24,-179.81,-179.62,0.03,1,
2251917288.96327,Ascent,4,180,176,168.21,0.51,4.14,201.11,-179.81,-179.62,0.03,1,
2251917289.12327,Ascent,4,181,177,168.11,0.52,4.17,200.97,-179.81,-179.62,0.03,1,
2251917289.28327,Ascent,4,181,177,168.02,0.52,4.19,200.84,-179.81,-179.62,0.03,1,
2251917289.44327,Ascent,4,182,178,167.92,0.53,4.22,200.71,-179.81,-179.62,0.02,1,
2251917289.60327,Ascent,4,183,179,167.82,0.53,4.25,200.58,-179.81,-179.62,0.02,1,
2251917289.76327,Ascent,4,184,180,167.72,0.54,4.28,200.45,-179.81,-179.62,0.02,1,
2251917289.92327,Ascent,4,185,181,167.63,0.55,4.31,200.32,-179.81,-179.63,0.02,1,
2251917290.08327,Ascent,4,186,181,167.53,0.55,4.34,200.19,-179.81,-179.63,0.02,1,
2251917290.24327,Ascent,4,187,182,167.43,0.56,4.37,200.07,-179.81,-179.63,0.02,1,
2251917290.40327,Ascent,4,187,183,167.33,0.57,4.4,199.94,-179.81,-179.63,0.02,1,
2251917290.56327,Ascent,5,188,184,167.23,0.57,4.43,199.82,-179.81,-179.63,0.02,1,
2251917290.72327,Ascent,5,189,184,167.13,0.58,4.46,199.69,-179.81,-179.63,0.02,1,
2251917290.88327,Ascent,5,190,185,167.03,0.59,4.49,199.57,-179.81,-179.63,0.02,1,
2251917291.04327,Ascent,5,191,186,166.93,0.59,4.52,199.45,-179.81,-179.63,0.02,1,
2251917291.20327,Ascent,5,192,187,166.83,0.6,4.55,199.32,-179.81,-179.63,0.02,1,
2251917291.36327,Ascent,5,193,188,166.73,0.61,4.58,199.2,-179.81,-179.63,0.02,1,
2251917291.52327,Ascent,5,194,188,166.63,0.61,4.61,199.08,-179.81,-179.64,0.02,1,
2251917291.68327,Ascent,5,195,189,166.53,0.62,4.64,198.96,-179.81,-179.64,0.02,1,
2251917291.84327,Ascent,5,195,190,166.42,0.63,4.67,198.85,-179.81,-179.64,0.02,1,
2251917292.00327,Ascent,5,196,191,166.32,0.63,4.71,198.73,-179.81,-179.64,0.02,1,
2251917292.16327,Ascent,5,197,192,166.22,0.64,4.74,198.61,-179.81,-179.64,0.02,1,
2251917292.32327,Ascent,5,198,192,166.12,0.65,4.77,198.5,-179.81,-179.64,0.02,1,
2251917292.48327,Ascent,5,199,193,166.01,0.66,4.8,198.38,-179.81,-179.64,0.02,1,
2251917292.64327,Ascent,5,200,194,165.91,0.66,4.83,198.27,-179.81,-179.64,0.02,1,
2251917292.80327,Ascent,5,201,195,165.8,0.67,4.86,198.15,-179.81,-179.64,0.02,1,
2251917292.96327,Ascent,5,202,196,165.7,0.68,4.9,198.04,-179.81,-179.64,0.02,1,
2251917293.12327,Ascent,5,203,196,165.6,0.69,4.93,197.93,-179.81,-179.65,0.02,1,
2251917293.28327,Ascent,5,204,197,165.49,0.7,4.96,197.82,-179.81,-179.65,0.02,1,
2251917293.44327,Ascent,5,205,198,165.39,0.7,4.99,197.71,-179.81,-179.65,0.02,1,
2251917293.60327,Ascent,5,206,199,165.28,0.71,5.03,197.6,-179.81,-179.65,0.02,1,
2251917293.76327,Ascent,5,207,200,165.18,0.72,5.06,197.49,-179.81,-179.65,0.02,1,
2251917293.92327,Ascent,5,208,201,165.07,0.73,5.09,197.39,-179.81,-179.65,0.02,1,
2251917294.08327,Ascent,5,208,201,164.96,0.74,5.12,197.28,-179.81,-179.65,0.01,1,
2251917294.24327,Ascent,5,209,202,164.86,0.75,5.16,197.17,-179.81,-179.65,0.01,1,
2251917294.40327,Ascent,5,210,203,164.75,0.76,5.19,197.07,-179.81,-179.66,0.01,1,
2251917294.56327,Ascent,5,211,204,164.64,0.76,5.22,196.96,-179.82,-179.66,0.01,1,
2251917294.72327,Ascent,5,212,205,164.54,0.77,5.26,196.86,-179.82,-179.66,0.01,1,
2251917294.88327,Ascent,5,213,205,164.43,0.78,5.29,196.76,-179.82,-179.66,0.01,1,
2251917295.04327,Ascent,5,214,206,164.32,0.79,5.33,196.66,-179.82,-179.66,0.01,1,
2251917295.20327,Ascent,5,215,207,164.21,0.8,5.36,196.56,-179.82,-179.66,0.01,1,
2251917295.36327,Ascent,5,216,208,164.1,0.81,5.39,196.46,-179.82,-179.66,0.01,1,
2251917295.52327,Ascent,5,217,209,164,0.82,5.43,196.36,-179.82,-179.66,0.01,1,
2251917295.68327,Ascent,6,218,209,163.89,0.83,5.46,196.26,-179.82,-179.66,0.02,1,
2251917295.84327,Ascent,6,219,210,163.78,0.84,5.5,196.16,-179.82,-179.66,0.02,1,
2251917296.00326,Ascent,6,220,211,163.67,0.85,5.53,196.06,-179.82,-179.66,0.02,1,
2251917296.16326,Ascent,6,221,212,163.56,0.86,5.57,195.97,-179.82,-179.66,0.02,1,
2251917296.32326,Ascent,6,222,213,163.45,0.87,5.6,195.87,-179.82,-179.67,0.02,1,
2251917296.48326,Ascent,6,223,214,163.34,0.88,5.64,195.78,-179.82,-179.67,0.02,1,
2251917296.64326,Ascent,6,224,214,163.23,0.89,5.67,195.68,-179.82,-179.67,0.01,1,
2251917296.80326,Ascent,6,225,215,163.12,0.9,5.71,195.59,-179.82,-179.67,0.01,1,
2251917296.96326,Ascent,6,226,216,163.01,0.91,5.74,195.5,-179.82,-179.67,0.01,1,
2251917297.12326,Ascent,6,227,217,162.9,0.92,5.78,195.4,-179.82,-179.67,0.01,1,
2251917297.28326,Ascent,6,228,218,162.78,0.93,5.82,195.31,-179.82,-179.67,0.01,1,
2251917297.44326,Ascent,6,229,219,162.67,0.94,5.85,195.22,-179.82,-179.67,0.01,1,
2251917297.60326,Ascent,6,230,219,162.56,0.95,5.89,195.13,-179.82,-179.68,0.01,1,
2251917297.76326,Ascent,6,231,220,162.45,0.96,5.93,195.04,-179.82,-179.68,0.01,1,
2251917297.92326,Ascent,6,232,221,162.34,0.97,5.96,194.96,-179.82,-179.68,0.01,1,
2251917298.08326,Ascent,6,233,222,162.22,0.99,6,194.87,-179.82,-179.68,0.01,1,
2251917298.24326,Ascent,6,234,223,162.11,1,6.04,194.78,-179.82,-179.68,0.01,1,
2251917298.40326,Ascent,6,235,224,162,1.01,6.07,194.69,-179.82,-179.68,0.01,1,
2251917298.56326,Ascent,6,236,224,161.89,1.02,6.11,194.61,-179.82,-179.68,0.01,1,
2251917298.72326,Ascent,6,237,225,161.77,1.03,6.15,194.52,-179.82,-179.68,0.02,1,
2251917298.88326,Ascent,6,238,226,161.66,1.04,6.19,194.44,-179.83,-179.68,0.02,1,
2251917299.04326,Ascent,6,239,227,161.55,1.06,6.22,194.36,-179.83,-179.68,0.02,1,
2251917299.20326,Ascent,6,240,228,161.43,1.07,6.26,194.27,-179.83,-179.68,0.02,1,
2251917299.36326,Ascent,6,241,229,161.32,1.08,6.3,194.19,-179.83,-179.68,0.02,1,
2251917299.52326,Ascent,6,242,229,161.2,1.09,6.34,194.11,-179.83,-179.69,0.01,1,
2251917299.68326,Ascent,6,243,230,161.09,1.11,6.38,194.03,-179.83,-179.69,0.01,1,
2251917299.84326,Ascent,6,245,231,160.97,1.12,6.41,193.95,-179.83,-179.69,0.01,1,
2251917300.00326,Ascent,6,246,232,160.86,1.13,6.45,193.87,-179.83,-179.69,0.01,1,
2251917300.16326,Ascent,7,247,233,160.74,1.14,6.49,193.79,-179.83,-179.69,0.01,1,
2251917300.32326,Ascent,7,248,234,160.63,1.16,6.53,193.71,-179.83,-179.69,0.01,1,
2251917300.48326,Ascent,7,249,235,160.51,1.17,6.57,193.63,-179.83,-179.69,0.01,1,
2251917300.64326,Ascent,7,250,235,160.4,1.18,6.61,193.55,-179.83,-179.69,0.01,1,
2251917300.80326,Ascent,7,251,236,160.28,1.2,6.65,193.48,-179.83,-179.69,0.01,1,
2251917300.96326,Ascent,7,252,237,160.17,1.21,6.69,193.4,-179.83,-179.7,0.01,1,
2251917301.12326,Ascent,7,253,238,160.05,1.22,6.73,193.33,-179.83,-179.7,0.01,1,
2251917301.28326,Ascent,7,254,239,159.93,1.24,6.77,193.25,-179.83,-179.7,0.01,1,
2251917301.44326,Ascent,7,255,240,159.82,1.25,6.81,193.18,-179.83,-179.7,0.01,1,
2251917301.60326,Ascent,7,256,240,159.7,1.27,6.85,193.1,-179.83,-179.7,0.01,1,
2251917301.76326,Ascent,7,257,241,159.58,1.28,6.89,193.03,-179.83,-179.7,0.01,1,
2251917301.92326,Ascent,7,259,242,159.47,1.29,6.93,192.96,-179.84,-179.7,0.01,1,
2251917302.08326,Ascent,7,260,243,159.35,1.31,6.97,192.88,-179.84,-179.7,0.01,1,
2251917302.24326,Ascent,7,261,244,159.23,1.32,7.01,192.81,-179.84,-179.7,0.01,1,
2251917302.40326,Ascent,7,262,245,159.11,1.34,7.05,192.74,-179.84,-179.7,0.01,1,
2251917302.56326,Ascent,7,263,246,158.99,1.35,7.1,192.67,-179.83,-179.7,0.01,1,
2251917302.72326,Ascent,7,264,246,158.87,1.37,7.14,192.6,-179.82,-179.71,0.01,1,
2251917302.88326,Ascent,7,265,247,158.75,1.38,7.18,192.53,-179.79,-179.71,0,1,
2251917303.04326,Ascent,7,266,248,158.62,1.4,7.22,192.46,-179.75,-179.71,0,1,
2251917303.20326,Ascent,7,268,249,158.5,1.41,7.26,192.39,-179.7,-179.71,0,1,
2251917303.36326,Ascent,7,269,250,158.38,1.43,7.3,192.32,-179.63,-179.71,0,1,
2251917303.52326,Ascent,7,270,251,158.25,1.45,7.35,192.25,-179.55,-179.71,0,1,
2251917303.68326,Ascent,7,271,251,158.13,1.46,7.39,192.18,-179.47,-179.71,0.01,1,
2251917303.84326,Ascent,7,272,252,158.02,1.48,7.43,192.11,-179.37,-179.71,0.01,1,
2251917304.00326,Ascent,7,273,253,157.9,1.49,7.48,192.05,-179.27,-179.71,0.01,1,
2251917304.16326,Ascent,7,274,254,157.79,1.51,7.52,191.98,-179.17,-179.71,0,1,
2251917304.32326,Ascent,8,276,255,157.68,1.53,7.56,191.92,-179.07,-179.71,0.01,1,
2251917304.48326,Ascent,8,277,256,157.57,1.54,7.6,191.86,-178.97,-179.72,0.01,1,
2251917304.64326,Ascent,8,278,257,157.46,1.56,7.65,191.79,-178.87,-179.72,0.01,1,
2251917304.80326,Ascent,8,279,257,157.35,1.58,7.69,191.73,-178.77,-179.72,0.01,1,
2251917304.96326,Ascent,8,280,258,157.24,1.6,7.74,191.67,-178.68,-179.72,0.01,1,
2251917305.12326,Ascent,8,281,259,157.14,1.61,7.78,191.61,-178.58,-179.72,0.01,1,
2251917305.28326,Ascent,8,282,260,157.03,1.63,7.82,191.55,-178.49,-179.72,0.01,1,
2251917305.44326,Ascent,8,284,261,156.93,1.65,7.87,191.49,-178.4,-179.72,0.01,1,
2251917305.60326,Ascent,8,285,262,156.82,1.67,7.91,191.43,-178.31,-179.72,0.01,1,
2251917305.76326,Ascent,8,286,263,156.72,1.68,7.96,191.38,-178.23,-179.72,0.01,1,
2251917305.92326,Ascent,8,287,264,156.62,1.7,8,191.32,-178.14,-179.72,0.01,1,
2251917306.08326,Ascent,8,288,264,156.52,1.72,8.05,191.26,-178.05,-179.72,0.01,1,
2251917306.24326,Ascent,8,290,265,156.42,1.74,8.09,191.21,-177.96,-179.72,0.01,1,
2251917306.40326,Ascent,8,291,266,156.32,1.76,8.14,191.15,-177.88,-179.72,0.01,1,
2251917306.56325,Ascent,8,292,267,156.22,1.78,8.19,191.1,-177.79,-179.72,0.02,1,
2251917306.72325,Ascent,8,293,268,156.12,1.8,8.23,191.04,-177.7,-179.72,0.02,1,
2251917306.88325,Ascent,8,294,269,156.03,1.81,8.28,190.99,-177.62,-179.72,0.02,1,
2251917307.04325,Ascent,8,296,270,155.93,1.83,8.32,190.94,-177.53,-179.73,0.02,1,
2251917307.20325,Ascent,8,297,271,155.84,1.85,8.37,190.89,-177.45,-179.73,0.02,1,
2251917307.36325,Ascent,8,298,272,155.74,1.87,8.42,190.84,-177.37,-179.73,0.01,1,
2251917307.52325,Ascent,8,299,273,155.65,1.89,8.46,190.79,-177.28,-179.73,0.01,1,
2251917307.68325,Ascent,8,300,273,155.56,1.91,8.51,190.73,-177.2,-179.73,0.01,1,
2251917307.84325,Ascent,8,302,274,155.47,1.93,8.56,190.69,-177.12,-179.73,0.01,1,
2251917308.00325,Ascent,8,303,275,155.38,1.95,8.61,190.64,-177.04,-179.73,0.01,1,
2251917308.16325,Ascent,9,304,276,155.29,1.97,8.65,190.59,-176.97,-179.73,0.01,1,
2251917308.32325,Ascent,9,305,277,155.2,1.99,8.7,190.54,-176.89,-179.73,0.01,1,
2251917308.48325,Ascent,9,307,278,155.11,2.01,8.75,190.49,-176.81,-179.74,0.01,1,
2251917308.64325,Ascent,9,308,279,155.03,2.03,8.8,190.44,-176.74,-179.74,0.01,1,
2251917308.80325,Ascent,9,309,280,154.94,2.05,8.85,190.4,-176.67,-179.74,0.01,1,
2251917308.96325,Ascent,9,310,281,154.86,2.08,8.89,190.35,-176.59,-179.74,0.01,1,
2251917309.12325,Ascent,9,312,282,154.77,2.1,8.94,190.31,-176.52,-179.74,0.01,1,
2251917309.28325,Ascent,9,313,283,154.69,2.12,8.99,190.26,-176.45,-179.74,0.01,1,
2251917309.44325,Ascent,9,314,284,154.6,2.14,9.04,190.22,-176.38,-179.74,0.01,1,
2251917309.60325,Ascent,9,315,285,154.52,2.16,9.09,190.17,-176.31,-179.74,0.01,1,
2251917309.76325,Ascent,9,317,286,154.44,2.18,9.14,190.13,-176.24,-179.74,0.01,1,
2251917309.92325,Ascent,9,318,286,154.36,2.2,9.19,190.09,-176.17,-179.74,0.01,1,
2251917310.08325,Ascent,9,319,287,154.28,2.23,9.24,190.05,-176.11,-179.74,0.01,1,
2251917310.24325,Ascent,9,320,288,154.2,2.25,9.29,190,-176.04,-179.74,0.01,1,
2251917310.40325,Ascent,9,322,289,154.12,2.27,9.34,189.96,-175.98,-179.74,0.01,1,
2251917310.56325,Ascent,9,323,290,154.05,2.29,9.39,189.92,-175.91,-179.75,0.01,1,
2251917310.72325,Ascent,9,324,291,153.97,2.32,9.44,189.88,-175.85,-179.75,0.01,1,
2251917310.88325,Ascent,9,325,292,153.89,2.34,9.49,189.84,-175.79,-179.75,0.01,1,
2251917311.04325,Ascent,9,327,293,153.82,2.36,9.54,189.8,-175.73,-179.75,0.01,1,
2251917311.20325,Ascent,9,328,294,153.74,2.38,9.59,189.76,-175.67,-179.75,0.01,1,
2251917311.36325,Ascent,9,329,295,153.67,2.41,9.65,189.72,-175.61,-179.75,0.01,1,
2251917311.52325,Ascent,10,330,296,153.59,2.43,9.7,189.68,-175.55,-179.75,0.01,1,
2251917311.68325,Ascent,10,332,297,153.52,2.45,9.75,189.65,-175.49,-179.75,0.01,1,
2251917311.84325,Ascent,10,333,298,153.45,2.48,9.8,189.61,-175.44,-179.75,0.01,1,
2251917312.00325,Ascent,10,334,299,153.37,2.5,9.85,189.57,-175.38,-179.75,0.01,1,
2251917312.16325,Ascent,10,336,300,153.3,2.53,9.91,189.54,-175.33,-179.75,0.01,1,
2251917312.32325,Ascent,10,337,301,153.23,2.55,9.96,189.5,-175.27,-179.75,0.01,1,
2251917312.48325,Ascent,10,338,302,153.16,2.57,10.01,189.46,-175.22,-179.75,0.01,1,
2251917312.64325,Ascent,10,340,303,153.09,2.6,10.06,189.43,-175.17,-179.76,0.01,1,
2251917312.80325,Ascent,10,341,304,153.02,2.62,10.12,189.39,-175.11,-179.76,0.01,1,
2251917312.96325,Ascent,10,342,305,152.96,2.65,10.17,189.36,-175.07,-179.76,0.01,1,
2251917313.12325,Ascent,10,343,306,152.89,2.67,10.22,189.33,-175.03,-179.76,0,1,
2251917313.28325,Ascent,10,345,307,152.83,2.7,10.28,189.29,-175.01,-179.76,0,1,
2251917313.44325,Ascent,10,346,308,152.76,2.72,10.33,189.26,-174.99,-179.76,0,1,
2251917313.60325,Ascent,10,347,309,152.7,2.75,10.39,189.23,-174.98,-179.77,0.01,1,
2251917313.76325,Ascent,10,349,310,152.64,2.77,10.44,189.19,-174.98,-179.77,0.01,1,
2251917313.92325,Ascent,10,350,311,152.57,2.8,10.5,189.16,-174.99,-179.77,0.01,1,
2251917314.08325,Ascent,10,351,312,152.51,2.83,10.55,189.13,-175,-179.78,0,1,
2251917314.24325,Ascent,10,353,313,152.44,2.85,10.61,189.1,-175.01,-179.78,0,1,
2251917314.40325,Ascent,10,354,314,152.37,2.88,10.66,189.06,-175.02,-179.78,0,1,
2251917314.56325,Ascent,10,355,315,152.3,2.9,10.72,189.03,-175.03,-179.79,-0.01,1,
2251917314.72325,Ascent,10,357,316,152.24,2.93,10.77,189,-175.04,-179.79,-0.01,1,
2251917314.88325,Ascent,11,358,317,152.17,2.96,10.83,188.97,-175.05,-179.8,-0.01,1,
2251917315.04325,Ascent,11,360,318,152.1,2.98,10.88,188.94,-175.05,-179.8,-0.01,1,
2251917315.20325,Ascent,11,361,319,152.04,3.01,10.94,188.9,-175.06,-179.8,-0.01,1,
2251917315.36325,Ascent,11,362,320,151.97,3.04,11,188.87,-175.07,-179.8,-0.01,1,
2251917315.52325,Ascent,11,364,321,151.9,3.07,11.05,188.84,-175.08,-179.81,-0.01,1,
2251917315.68325,Ascent,11,365,322,151.83,3.09,11.11,188.81,-175.08,-179.81,-0.01,1,
2251917315.84325,Ascent,11,366,323,151.77,3.12,11.17,188.78,-175.09,-179.81,-0.01,1,
2251917316.00325,Ascent,11,368,324,151.7,3.15,11.23,188.75,-175.1,-179.81,-0.01,1,
2251917316.16325,Ascent,11,369,325,151.63,3.18,11.28,188.72,-175.11,-179.82,0,1,
2251917316.32325,Ascent,11,371,326,151.56,3.2,11.34,188.69,-175.12,-179.82,-0.01,1,
2251917316.48325,Ascent,11,372,327,151.5,3.23,11.4,188.66,-175.13,-179.82,-0.01,1,
2251917316.64325,Ascent,11,373,328,151.43,3.26,11.46,188.63,-175.13,-179.83,-0.01,1,
2251917316.80325,Ascent,11,375,329,151.36,3.29,11.52,188.6,-175.14,-179.83,-0.01,1,
2251917316.96324,Ascent,11,376,330,151.29,3.32,11.58,188.57,-175.15,-179.83,-0.01,1,
2251917317.12324,Ascent,11,377,331,151.23,3.35,11.64,188.54,-175.16,-179.83,-0.01,1,
2251917317.28324,Ascent,11,379,332,151.16,3.38,11.69,188.51,-175.17,-179.84,-0.01,1,
2251917317.44324,Ascent,11,380,333,151.09,3.41,11.75,188.48,-175.18,-179.84,-0.01,1,
2251917317.60324,Ascent,11,382,334,151.02,3.44,11.81,188.45,-175.19,-179.84,-0.01,1,
2251917317.76324,Ascent,11,383,335,150.96,3.46,11.87,188.43,-175.2,-179.84,-0.01,1,
2251917317.92324,Ascent,12,385,336,150.89,3.49,11.93,188.4,-175.21,-179.84,-0.01,1,
2251917318.08324,Ascent,12,386,337,150.82,3.52,11.99,188.37,-175.21,-179.84,-0.01,1,
2251917318.24324,Ascent,12,387,338,150.75,3.55,12.05,188.34,-175.22,-179.85,-0.01,1,
2251917318.40324,Ascent,12,389,339,150.69,3.59,12.11,188.31,-175.23,-179.85,-0.01,1,
2251917318.56324,Ascent,12,390,340,150.62,3.62,12.18,188.29,-175.24,-179.85,-0.01,1,
2251917318.72324,Ascent,12,392,341,150.55,3.65,12.24,188.26,-175.25,-179.85,-0.01,1,
2251917318.88324,Ascent,12,393,342,150.48,3.68,12.3,188.23,-175.25,-179.85,-0.01,1,
2251917319.04324,Ascent,12,395,343,150.41,3.71,12.36,188.2,-175.26,-179.86,-0.01,1,
2251917319.20324,Ascent,12,396,344,150.35,3.74,12.42,188.18,-175.27,-179.86,-0.01,1,
2251917319.36324,Ascent,12,398,345,150.28,3.77,12.48,188.15,-175.27,-179.86,-0.01,1,
2251917319.52324,Ascent,12,399,346,150.21,3.8,12.55,188.12,-175.28,-179.86,-0.01,1,
2251917319.68324,Ascent,12,400,347,150.14,3.83,12.61,188.1,-175.29,-179.86,-0.01,1,
2251917319.84324,Ascent,12,402,348,150.08,3.87,12.67,188.07,-175.29,-179.86,-0.01,1,
2251917320.00324,Ascent,12,403,349,150.01,3.9,12.73,188.04,-175.3,-179.86,-0.01,1,
2251917320.16324,Ascent,12,405,350,149.94,3.93,12.8,188.02,-175.31,-179.87,-0.01,1,
2251917320.32324,Ascent,12,406,351,149.87,3.96,12.86,187.99,-175.31,-179.87,-0.01,1,
2251917320.48324,Ascent,12,408,352,149.81,4,12.92,187.96,-175.32,-179.87,-0.01,1,
2251917320.64324,Ascent,12,409,354,149.74,4.03,12.99,187.94,-175.32,-179.87,-0.01,1,
2251917320.80324,Ascent,13,411,355,149.67,4.06,13.05,187.91,-175.33,-179.87,-0.01,1,
2251917320.96324,Ascent,13,412,356,149.6,4.09,13.12,187.89,-175.33,-179.87,-0.01,1,
2251917321.12324,Ascent,13,414,357,149.53,4.13,13.18,187.86,-175.34,-179.88,-0.01,1,
2251917321.28324,Ascent,13,415,358,149.47,4.16,13.25,187.84,-175.34,-179.88,-0.01,1,
2251917321.44324,Ascent,13,417,359,149.4,4.2,13.31,187.81,-175.34,-179.88,-0.01,1,
2251917321.60324,Ascent,13,418,360,149.33,4.23,13.38,187.79,-175.35,-179.88,-0.01,1,
2251917321.76324,Ascent,13,420,361,149.26,4.26,13.44,187.76,-175.35,-179.88,-0.01,1,
2251917321.92324,Ascent,13,421,362,149.2,4.3,13.51,187.74,-175.35,-179.88,-0.01,1,
2251917322.08324,Ascent,13,423,363,149.13,4.33,13.57,187.71,-175.36,-179.88,-0.01,1,
2251917322.24324,Ascent,13,424,364,149.06,4.37,13.64,187.69,-175.36,-179.88,-0.01,1,
2251917322.40324,Ascent,13,426,365,148.99,4.4,13.71,187.66,-175.36,-179.88,-0.01,1,
2251917322.56324,Ascent,13,427,366,148.93,4.44,13.77,187.64,-175.36,-179.88,-0.01,1,
2251917322.72324,Ascent,13,429,367,148.86,4.47,13.84,187.62,-175.36,-179.89,-0.01,1,
2251917322.88324,Ascent,13,431,368,148.79,4.51,13.91,187.59,-175.37,-179.89,-0.01,1,
2251917323.04324,Ascent,13,432,369,148.73,4.54,13.98,187.57,-175.37,-179.89,-0.01,1,
2251917323.20324,Ascent,13,434,370,148.66,4.58,14.04,187.54,-175.37,-179.89,-0.01,1,
2251917323.36324,Ascent,13,435,371,148.59,4.62,14.11,187.52,-175.37,-179.89,-0.01,1,
2251917323.52324,Ascent,14,437,372,148.52,4.65,14.18,187.5,-175.37,-179.89,-0.01,1,
2251917323.68324,Ascent,14,438,373,148.46,4.69,14.25,187.47,-175.37,-179.89,-0.01,1,
2251917323.84324,Ascent,14,440,374,148.39,4.73,14.32,187.45,-175.37,-179.89,-0.01,1,
2251917324.00324,Ascent,14,441,376,148.32,4.76,14.39,187.43,-175.37,-179.89,-0.01,1,
2251917324.16324,Ascent,14,443,377,148.26,4.8,14.45,187.4,-175.37,-179.9,0,1,
2251917324.32324,Ascent,14,444,378,148.19,4.84,14.52,187.38,-175.37,-179.9,0,1,
2251917324.48324,Ascent,14,446,379,148.12,4.87,14.59,187.36,-175.37,-179.9,0,1,
2251917324.64324,Ascent,14,448,380,148.06,4.91,14.66,187.34,-175.36,-179.9,0,1,
2251917324.80324,Ascent,14,449,381,147.99,4.95,14.73,187.31,-175.36,-179.9,0.01,1,
2251917324.96324,Ascent,14,451,382,147.92,4.99,14.8,187.29,-175.36,-179.9,0.01,1,
2251917325.12324,Ascent,14,452,383,147.86,5.03,14.87,187.27,-175.36,-179.9,0.01,1,
2251917325.28324,Ascent,14,454,384,147.79,5.06,14.95,187.25,-175.36,-179.9,0.01,1,
2251917325.44324,Ascent,14,456,385,147.72,5.1,15.02,187.23,-175.35,-179.9,0.01,1,
2251917325.60324,Ascent,14,457,386,147.66,5.14,15.09,187.2,-175.35,-179.9,0.01,1,
2251917325.76324,Ascent,14,459,387,147.59,5.18,15.16,187.18,-175.35,-179.9,0.01,1,
2251917325.92324,Ascent,14,460,388,147.53,5.22,15.23,187.16,-175.34,-179.9,0.01,1,
2251917326.08324,Ascent,14,462,389,147.46,5.26,15.3,187.14,-175.34,-179.9,0.01,1,
2251917326.24324,Ascent,15,464,391,147.39,5.3,15.38,187.12,-175.33,-179.9,0.01,1,
2251917326.40324,Ascent,15,465,392,147.33,5.34,15.45,187.1,-175.33,-179.9,0.01,1,
2251917326.56324,Ascent,15,467,393,147.26,5.38,15.52,187.07,-175.33,-179.9,0.01,1,
2251917326.72324,Ascent,15,469,394,147.2,5.42,15.59,187.05,-175.32,-179.9,0.01,1,
2251917326.88324,Ascent,15,470,395,147.13,5.46,15.67,187.03,-175.31,-179.9,0.02,1,
2251917327.04324,Ascent,15,472,396,147.07,5.5,15.74,187.01,-175.31,-179.9,0.02,1,
2251917327.20324,Ascent,15,473,397,147,5.54,15.82,186.99,-175.3,-179.9,0.02,1,
2251917327.36324,Ascent,15,475,398,146.94,5.58,15.89,186.97,-175.3,-179.9,0.02,1,
2251917327.52323,Ascent,15,477,399,146.87,5.63,15.96,186.95,-175.29,-179.91,0.02,1,
2251917327.68323,Ascent,15,478,400,146.81,5.67,16.04,186.93,-175.28,-179.91,0.02,1,
2251917327.84323,Ascent,15,480,401,146.74,5.71,16.11,186.91,-175.27,-179.91,0.01,1,
2251917328.00323,Ascent,15,482,402,146.68,5.75,16.19,186.89,-175.27,-179.91,0.01,1,
2251917328.16323,Ascent,15,483,404,146.61,5.79,16.26,186.87,-175.26,-179.91,0.01,1,
2251917328.32323,Ascent,15,485,405,146.55,5.84,16.34,186.85,-175.25,-179.91,0.01,1,
2251917328.48323,Ascent,15,487,406,146.49,5.88,16.42,186.83,-175.24,-179.91,0.01,1,
2251917328.64323,Ascent,15,488,407,146.42,5.92,16.49,186.81,-175.23,-179.91,0.01,1,
2251917328.80323,Ascent,16,490,408,146.36,5.97,16.57,186.79,-175.22,-179.91,0.01,1,
2251917328.96323,Ascent,16,492,409,146.29,6.01,16.64,186.77,-175.21,-179.91,0.01,1,
2251917329.12323,Ascent,16,493,410,146.23,6.05,16.72,186.75,-175.2,-179.91,0.01,1,
2251917329.28323,Ascent,16,495,411,146.17,6.1,16.8,186.73,-175.19,-179.91,0.01,1,
2251917329.44323,Ascent,16,497,412,146.1,6.14,16.88,186.71,-175.18,-179.91,0.01,1,
2251917329.60323,Ascent,16,498,413,146.04,6.19,16.95,186.69,-175.16,-179.91,0.01,1,
2251917329.76323,Ascent,16,500,415,145.98,6.23,17.03,186.67,-175.15,-179.91,0.01,1,
2251917329.92323,Ascent,16,502,416,145.92,6.27,17.11,186.66,-175.14,-179.91,0.01,1,
2251917330.08323,Ascent,16,504,417,145.85,6.32,17.19,186.64,-175.12,-179.91,0.01,1,
2251917330.24323,Ascent,16,505,418,145.79,6.36,17.27,186.62,-175.11,-179.91,0.01,1,
2251917330.40323,Ascent,16,507,419,145.73,6.41,17.35,186.6,-175.09,-179.91,0.01,1,
2251917330.56323,Ascent,16,509,420,145.67,6.46,17.43,186.58,-175.08,-179.91,0.01,1,
2251917330.72323,Ascent,16,511,421,145.6,6.5,17.51,186.56,-175.06,-179.91,0.02,1,
2251917330.88323,Ascent,16,512,422,145.54,6.55,17.59,186.54,-175.04,-179.91,0.02,1,
2251917331.04323,Ascent,16,514,423,145.48,6.59,17.67,186.53,-175.03,-179.91,0.02,1,
2251917331.20323,Ascent,17,516,425,145.42,6.64,17.75,186.51,-175.01,-179.91,0.02,1,
2251917331.36323,Ascent,17,517,426,145.36,6.69,17.83,186.49,-174.99,-179.91,0.02,1,
2251917331.52323,Ascent,17,519,427,145.3,6.73,17.91,186.47,-174.97,-179.91,0.01,1,
2251917331.68323,Ascent,17,521,428,145.24,6.78,17.99,186.45,-174.95,-179.91,0.01,1,
2251917331.84323,Ascent,17,523,429,145.18,6.83,18.07,186.44,-174.93,-179.91,0.01,1,
2251917332.00323,Ascent,17,524,430,145.12,6.88,18.15,186.42,-174.91,-179.91,0.01,1,
2251917332.16323,Ascent,17,526,431,145.06,6.93,18.23,186.4,-174.89,-179.91,0.01,1,
