Time,Phase,Altitude,Horizontal speed,Vertical speed,Retro to Zenith,Surface distance,Pad distance,Pad bearing,Pitch ang,Yaw ang,Roll ang,Throttle,
2251917233.60332,Ascent,0,0,0,43.47,0.16,0.18,-54.76,-27.61,-38.33,173.44,0,
2251917233.66332,Ascent,0,0,0,171.12,0.16,0.18,-113.32,173.71,174.74,173.53,0,
2251917233.72332,Ascent,0,0,0,124.71,0.16,0.18,-93.23,172.25,178.53,173.44,0,
2251917233.78332,Ascent,0,0,0,24.35,0.16,0.18,114.94,173.87,173.81,173.4,0,
2251917233.84332,Ascent,0,0,0,45.93,0.16,0.18,-30.43,169.47,28.97,173.49,0,
2251917233.90332,Ascent,0,0,0,63.69,0.16,0.18,140.99,63.68,4.89,173.48,0,
2251917233.96332,Ascent,0,0,0,171.06,0.16,0.18,111.01,178.45,-171.19,173.43,0,
2251917234.04332,Ascent,0,0,0,168.7,0.16,0.18,-78.17,-174.89,-169.87,173.51,0,
2251917234.10332,Ascent,0,0,0,149.96,0.16,0.18,123.91,158.3,157.25,173.46,0,
2251917234.16332,Ascent,0,0,0,165.15,0.16,0.18,109.67,-160.55,173.67,173.44,0,
2251917234.22332,Ascent,0,0,0,149.51,0.16,0.18,110.8,-174.99,-173.56,173.46,0,
2251917234.28332,Ascent,0,0,0,171.88,0.16,0.18,-97.05,31.26,-173.4,173.38,0,
2251917234.34332,Ascent,0,0,0,165.09,0.16,0.18,142.92,-174.45,168.31,173.39,0,
2251917234.40332,Ascent,0,0,0,8.64,0.16,0.18,-69.56,-8.12,-2.99,173.54,0,
2251917234.46332,Ascent,0,0,0,61.16,0.16,0.18,-26.08,58.82,37.04,173.48,0,
2251917234.54332,Ascent,0,0,0,64.1,0.16,0.18,137.79,64.11,1.09,173.48,0,
2251917234.60332,Ascent,0,0,0,15.16,0.16,0.18,123.52,179.22,-171.94,173.43,0,
2251917234.66332,Ascent,0,0,0,143.69,0.16,0.18,-124.6,-51.72,-77.31,173.51,0,
2251917234.72332,Ascent,0,0,0,176.45,0.16,0.18,125.29,179.1,-171.67,173.37,0,
2251917234.78332,Ascent,0,0,0,175.03,0.16,0.18,-35.33,169.54,177.11,173.46,0,
2251917234.84332,Ascent,0,0,0,138.16,0.16,0.18,102.21,159.69,140.82,173.44,0,
2251917234.90332,Ascent,0,0,0,19.16,0.16,0.18,-21.78,-1.71,-19.09,173.56,0,
2251917234.98332,Ascent,0,0,0,17.69,0.16,0.18,43.53,10.6,-14.49,173.48,0,
2251917235.04332,Ascent,0,0,0,163.04,0.16,0.18,55.35,-172.08,-164.81,173.51,0,
2251917235.10332,Ascent,0,0,0,173.45,0.16,0.18,-95.45,163.7,-174.85,173.46,0,
2251917235.16332,Ascent,0,0,0,158.46,0.16,0.18,19.68,167.78,165.02,173.51,0,
2251917235.22332,Ascent,0,0,0,170.5,0.16,0.18,-85.27,-29.93,-170.99,173.5,0,
2251917235.28332,Ascent,0,0,0,171.63,0.16,0.18,165.35,-173.03,175.78,173.39,0,
2251917235.34332,Ascent,0,0,0,173.41,0.16,0.18,98.88,-174.2,176.84,173.46,0,
2251917235.42332,Ascent,0,0,0,159.25,0.16,0.18,-84,-168.25,-162.43,173.44,0,
2251917235.48332,Ascent,0,0,0,57.39,0.16,0.18,96.12,50.63,44.39,173.44,0,
2251917235.54332,Ascent,0,0,0,159.13,0.16,0.18,118.03,-175.18,177.04,173.46,0,
2251917235.60332,Ascent,0,0,0,40.13,0.16,0.18,118.68,-172.96,-171.98,173.5,0,
2251917235.66332,Ascent,0,0,0,56.87,0.16,0.18,109.55,165.63,170.59,173.49,0,
2251917235.72332,Ascent,0,0,0,160.38,0.16,0.18,6.24,91.74,-162.54,173.49,0,
2251917235.78332,Ascent,0,0,0,17.22,0.16,0.18,57.13,-10.13,-14.2,173.48,0,
2251917235.86332,Ascent,0,0,0,163.33,0.16,0.18,59.7,-172.71,-164.85,173.51,0,
2251917235.92332,Ascent,0,0,0,170.19,0.16,0.18,-77.85,-174.64,-171.73,173.52,0,
2251917235.98332,Ascent,0,0,0,170.27,0.16,0.18,91.57,38.45,36.48,173.49,0,
2251917236.04332,Ascent,0,0,0,166.88,0.16,0.18,-88.62,-166.25,-164.04,173.39,0,
2251917236.10332,Ascent,0,0,0,171.8,0.16,0.18,170.71,-169.54,-162.15,173.45,0,
2251917236.16332,Ascent,0,0,0,86.77,0.16,0.18,87.92,176.16,80.71,173.5,0,
2251917236.22332,Ascent,0,0,0,28.22,0.16,0.18,116.09,-3.91,28.02,173.35,0,
2251917236.28332,Ascent,0,0,0,75.68,0.16,0.18,5.79,-29.21,75.54,173.43,0,
2251917236.36332,Ascent,0,0,0,36.33,0.16,0.18,50.7,-16.62,-33.9,173.48,0,
2251917236.42332,Ascent,0,0,0,172.73,0.16,0.18,-110.53,-177.97,-164.18,173.51,0,
2251917236.48332,Ascent,0,0,0,52.26,0.16,0.18,134.46,175.22,177.59,173.5,0,
2251917236.54332,Ascent,0,0,0,172.92,0.16,0.18,-95.79,-4.65,0.39,173.38,0,
2251917236.60332,Ascent,0,0,0,170.53,0.16,0.18,167.17,-174.56,176.35,173.39,0,
2251917236.66332,Ascent,0,0,0,171.53,0.16,0.18,79.92,163.08,175.43,173.44,0,
2251917236.72332,Ascent,0,0,0,29.36,0.16,0.18,-112.19,-18.87,-24.07,173.57,0,
2251917236.80332,Ascent,0,0,0,20.67,0.16,0.18,-98.21,-15.95,13.82,173.54,0,
2251917236.86332,Ascent,0,0,0,171.12,0.16,0.18,137.44,173.89,173.51,173.39,0,
2251917236.92332,Ascent,0,0,0,161.66,0.16,0.18,-113.06,-169.87,-174.15,173.51,0,
2251917236.98332,Ascent,0,0,0,173.36,0.16,0.18,-87.8,169.96,174.7,173.46,0,
2251917237.04332,Ascent,0,0,0,167.76,0.16,0.18,92.42,159.82,172.92,173.44,0,
2251917237.10332,Ascent,0,0,0,173.89,0.16,0.18,137.11,4.31,-179.03,173.38,0,
2251917237.16332,Ascent,0,0,0,27.65,0.16,0.18,99.77,-27.61,1.53,173.49,0,
2251917237.22332,Ascent,0,0,0,166.64,0.16,0.18,56.49,-171.87,-169.25,173.51,0,
2251917237.30332,Ascent,0,0,0,162.49,0.16,0.18,-111.91,163.32,-174.41,173.49,0,
2251917237.36332,Ascent,0,0,0,159.96,0.16,0.18,128.93,167.19,164.09,173.46,0,
2251917237.42332,Ascent,0,0,0,12.62,0.16,0.18,138.38,-176.28,-172.47,173.49,0,
2251917237.48332,Ascent,0,0,0,43.11,0.16,0.18,105.88,-173.82,-169,173.48,0,
2251917237.54332,Ascent,0,0,0,165.53,0.16,0.18,-110.61,133.58,-166.49,173.51,0,
2251917237.60332,Ascent,0,0,0,169.04,0.16,0.18,-101.21,-2.69,176.62,173.45,0,
2251917237.66332,Ascent,0,0,0,72.25,0.16,0.18,120.84,61.69,68.31,173.45,0,
2251917237.74332,Ascent,0,0,0,42.26,0.16,0.18,-1.87,-2.13,42.23,173.4,0,
2251917237.80332,Ascent,0,0,0,35,0.16,0.18,-96.62,13.81,-33.25,173.49,0,
2251917237.86332,Ascent,0,0,0,46.53,0.16,0.18,-125.43,170.55,178.53,173.45,0,
2251917237.92332,Ascent,0,0,0,70.35,0.16,0.18,-36.17,-89.86,-87.81,173.48,0,
2251917237.98332,Ascent,0,0,0,172.26,0.16,0.18,123.68,164.41,176.17,173.43,0,
2251917238.04332,Ascent,0,0,0,71.84,0.16,0.18,13.93,175.93,-71.12,173.5,0,
2251917238.10332,Ascent,0,0,0,164.66,0.16,0.18,120.22,175.07,-165.41,173.49,0,
2251917238.16332,Ascent,0,0,0,164.48,0.16,0.18,-79.27,-174.13,-165.53,173.51,0,
2251917238.24332,Ascent,0,0,0,147.38,0.16,0.18,115.7,155.51,155.8,173.46,0,
2251917238.30332,Ascent,0,0,0,165.27,0.16,0.18,130.91,-172.99,-166.91,173.57,0,
2251917238.36332,Ascent,0,0,0,41.33,0.16,0.18,-83.8,-174.99,-169.89,173.45,0,
2251917238.42332,Ascent,0,0,0,165.07,0.16,0.18,-80.75,132.61,131.85,173.51,1,
2251917238.48332,Ascent,0,0,0,171.28,0.16,0.18,-95.36,-12.5,177.33,173.52,1,
2251917238.54332,Ascent,0,0,0,170.67,0.16,0.18,166.13,-173.67,173.24,173.45,1,
2251917238.60332,Ascent,0,0,0,53.71,0.16,0.18,93.43,-25.11,51.98,173.48,1,
2251917238.66332,Ascent,0,0,0,13.59,0.16,0.18,110.29,-0.09,13.59,173.33,1,
2251917238.74332,Ascent,0,0,0,164.92,0.16,0.18,-77,-170.02,-168.46,173.51,1,
2251917238.80332,Ascent,0,0,0,174.11,0.16,0.18,-163.2,167.72,172.64,173.51,1,
2251917238.86332,Ascent,0,0,0,54.53,0.16,0.18,-119.14,178.02,-176.88,173.4,1,
2251917238.92332,Ascent,0,0,0,173.29,0.16,0.18,164.35,166.79,170.54,173.37,1,
2251917238.98332,Ascent,0,0,0,125.59,0.16,0.18,115.32,174.79,125.64,173.44,1,
2251917239.04332,Ascent,0,0,0,25.1,0.16,0.18,109.2,172.9,24.54,173.4,1,
2251917239.10332,Ascent,0,0,0,37.19,0.16,0.18,109.64,-7.93,36.72,173.49,1,
2251917239.18332,Ascent,0,0,0,143.42,0.16,0.18,61.05,-158.77,-147.68,173.54,1,
2251917239.24332,Ascent,0,0,0,174.87,0.16,0.18,-90.87,175.19,-178.21,173.38,1,
2251917239.30332,Ascent,0,0,0,26.84,0.16,0.18,-110.39,174.32,174.78,173.39,1,
2251917239.36332,Ascent,0,0,0,168.53,0.16,0.18,138.48,167.49,170.6,173.38,1,
2251917239.42332,Ascent,0,0,0,169.09,0.16,0.18,-89.85,148.91,172.02,173.51,1,
2251917239.48332,Ascent,0,0,0,173.88,0.16,0.18,-86.57,-10.53,178.21,173.51,1,
2251917239.54332,Ascent,0,0,0,173.67,0.16,0.18,-116.19,173.92,-178.27,173.46,1,
2251917239.60332,Ascent,0,0,0,164.42,0.16,0.18,-81.52,168.09,169.68,173.51,1,
2251917239.68332,Ascent,0,0,0,173.04,0.16,0.18,-117.87,173.24,-178.38,173.37,1,
2251917239.74332,Ascent,0,0,0,174.24,0.16,0.18,-114.09,-179.8,174.25,173.45,1,
2251917239.80332,Ascent,0,0,0,37.54,0.16,0.18,-102.87,172.17,173.18,173.45,1,
2251917239.86332,Ascent,0,0,0,167.45,0.16,0.18,75.81,128.93,132.13,173.51,1,
2251917239.92332,Ascent,0,0,0,162.75,0.16,0.18,79.9,-16.59,-18.39,173.43,1,
2251917239.98332,Ascent,0,0,0,61.29,0.16,0.18,56.02,174.75,-54,173.48,1,
2251917240.04332,Ascent,0,0,0,163.52,0.16,0.18,75.47,-173.11,-164.88,173.51,1,
2251917240.12332,Ascent,0,0,0,171.32,0.16,0.18,-98.37,-176.7,-171.96,173.45,1,
2251917240.18332,Ascent,0,0,0,164.47,0.16,0.18,141.63,169.9,167.96,173.39,1,
2251917240.24332,Ascent,0,0,0,170.84,0.16,0.18,-78,-12.6,-6.91,173.52,1,
2251917240.30332,Ascent,0,0,0,167.79,0.16,0.18,-119.91,162.73,172.58,173.51,1,
2251917240.36332,Ascent,0,0,0,173.24,0.16,0.18,157.33,-11.69,4.68,173.44,1,
2251917240.42332,Ascent,0,0,0,75.66,0.16,0.18,96.79,171.97,68.15,173.49,1,
2251917240.48332,Ascent,0,0,0,168.17,0.16,0.18,42.04,73.77,-170.9,173.51,1,
2251917240.54332,Ascent,0,0,0,159.97,0.16,0.18,29.83,-176.11,-160.29,173.48,1,
2251917240.62332,Ascent,0,0,0,160.01,0.16,0.18,1.76,-177.98,-160.09,173.55,1,
2251917240.68332,Ascent,0,0,0,13.78,0.16,0.18,29.59,10.07,-9.61,173.46,1,
2251917240.74332,Ascent,0,0,0,60.11,0.16,0.18,-89.35,-174.47,-167.68,173.45,1,
2251917240.80332,Ascent,0,0,0,67.55,0.16,0.18,137.47,-99.25,-166.7,173.48,1,
2251917240.86332,Ascent,0,0,0,172.52,0.16,0.18,76.64,157.19,-172.59,173.49,1,
2251917240.92332,Ascent,0,0,0,31.72,0.16,0.18,5.76,177.09,-29.49,173.42,1,
2251917240.98332,Ascent,0,0,0,46.01,0.16,0.18,62.69,23.37,-43.27,173.49,1,
2251917241.06332,Ascent,0,0,0,163.77,0.16,0.18,-87.11,-172.35,-165.52,173.45,1,
2251917241.12332,Ascent,0,0,0,34.76,0.16,0.18,-89.03,-33.48,11.8,173.44,1,
2251917241.18332,Ascent,0,0,0,8.67,0.16,0.18,154.41,175.43,-179.54,173.46,1,
2251917241.24332,Ascent,0,0,0,172.51,0.16,0.18,-167.33,-25.62,34.28,173.38,1,
2251917241.30332,Ascent,0,0,0,52.55,0.16,0.18,-79.59,174.32,-175.03,173.49,1,
2251917241.36332,Ascent,0,0,0,147.59,0.16,0.18,-74.34,-166.01,-155.27,173.42,1,
2251917241.42332,Ascent,0,0,0,134.72,0.16,0.18,-78.73,-145.16,-143.79,173.12,1,
2251917241.48332,Ascent,0,0,0,126.68,0.16,0.18,-85.88,-140.49,-133.34,173.06,1,
2251917241.56332,Ascent,0,0,0,135.65,0.16,0.18,-93.6,-158.52,-138.17,172.91,1,
2251917241.62332,Ascent,0,0,0,138.67,0.16,0.18,-89.34,-162.95,-140.5,172.74,1,
2251917241.68332,Ascent,0,0,0,124.71,0.16,0.18,-89.62,-145.95,-125.36,172.69,1,
2251917241.74332,Ascent,0,0,0,130.61,0.16,0.18,-92.53,-139.24,-124.04,172.41,1,
2251917241.80332,Ascent,0,0,0,131.89,0.16,0.18,-96.17,-139.42,-122.81,172.33,1,
2251917241.86332,Ascent,0,0,0,100.36,0.16,0.18,-97.92,-157.73,-100.9,172.24,1,
2251917241.92332,Ascent,0,0,0,133.29,0.16,0.18,-92.19,-142.34,-136.55,171.99,1,
2251917241.98332,Ascent,0,0,0,105.12,0.16,0.18,-82.52,-128.14,-106.05,172.01,1,
2251917242.06332,Ascent,0,0,0,120.56,0.16,0.18,-89.61,-141.3,-123.83,171.88,1,
2251917242.12332,Ascent,0,0,0,47.88,0.16,0.18,-135.82,2.69,-47.85,171.87,1,
2251917242.18332,Ascent,0,0,0,62.23,0.16,0.18,-81.55,-47.91,-39.92,171.79,1,
2251917242.24332,Ascent,0,0,0,119.84,0.16,0.18,160.46,14.47,-3.88,171.81,1,
2251917242.30332,Ascent,0,0,0,84.63,0.16,0.18,115.94,-2.73,11.88,171.68,1,
2251917242.36332,Ascent,0,0,0,26.25,0.16,0.18,59.86,16.07,26.18,171.77,1,
2251917242.42332,Ascent,0,0,0,43.84,0.16,0.18,108.8,28.58,38.34,171.77,1,
2251917242.48332,Ascent,0,0,0,20.06,0.16,0.18,57.47,6.92,19.01,171.7,1,
2251917242.56332,Ascent,0,0,0,56.61,0.16,0.18,105.66,47.62,46.39,171.67,1,
2251917242.62332,Ascent,0,0,0,59.65,0.16,0.18,84.21,-15.07,59.34,171.68,1,
2251917242.68332,Ascent,0,0,0,107.37,0.16,0.18,104.29,18.41,23.11,171.72,1,
2251917242.74332,Ascent,0,0,0,68.57,0.16,0.18,92.23,12.25,31.69,171.67,1,
2251917242.80332,Ascent,0,0,0,74.62,0.16,0.18,78.71,31.39,74.61,171.67,1,
2251917242.86332,Ascent,0,0,0,42.72,0.16,0.18,89.22,22.52,39.53,171.66,1,
2251917242.92332,Ascent,0,0,0,48.76,0.16,0.18,87.78,9.61,48.44,171.64,1,
2251917243.00332,Ascent,0,0,0,53.08,0.16,0.18,93.65,32.64,49.4,171.6,1,
2251917243.06332,Ascent,0,0,0,18.09,0.16,0.18,65.84,5.3,17.4,171.66,1,
2251917243.12332,Ascent,0,0,0,13.94,0.16,0.18,91.68,57.19,65.3,171.61,1,
2251917243.18332,Ascent,0,0,0,54.51,0.16,0.18,87.34,5.26,29.81,171.67,1,
2251917243.24332,Ascent,0,0,0,40.48,0.16,0.18,60.04,14.98,38.4,171.65,1,
2251917243.30332,Ascent,0,0,0,28.29,0.16,0.18,101.61,-1.66,24.14,171.66,1,
2251917243.36332,Ascent,0,0,0,22.95,0.16,0.18,74.18,0.85,22.94,171.66,1,
2251917243.44332,Ascent,0,0,0,54.64,0.16,0.18,92.03,36.07,50.35,171.67,1,
2251917243.50332,Ascent,0,0,0,94.24,0.16,0.18,73.96,100.71,94.62,171.62,1,
2251917243.56331,Ascent,0,0,0,49.92,0.16,0.18,93.82,52.36,62.68,171.62,1,
2251917243.62331,Ascent,0,0,0,44.25,0.16,0.18,97.81,29.41,48.73,171.66,1,
2251917243.68331,Ascent,0,0,0,46.67,0.16,0.18,70.43,19.97,44.92,171.65,1,
2251917243.74331,Ascent,0,0,0,56.12,0.16,0.18,88.26,7.98,53.48,171.66,1,
2251917243.80331,Ascent,0,0,0,43.35,0.16,0.18,81.12,11.22,42.71,171.66,1,
2251917243.88331,Ascent,0,0,0,33.21,0.16,0.18,86.37,18.91,29.16,171.65,1,
2251917243.94331,Ascent,0,0,0,40.7,0.16,0.18,74.69,19.84,37.99,171.66,1,
2251917244.00331,Ascent,0,0,0,70.05,0.16,0.18,95.27,22.38,35.14,171.66,1,
2251917244.06331,Ascent,0,0,0,47.87,0.16,0.18,100.52,32.04,49.02,171.74,1,
2251917244.12331,Ascent,0,0,0,33.63,0.16,0.18,80.63,16.67,20.31,171.66,1,
2251917244.18331,Ascent,0,0,0,31.92,0.16,0.18,82.26,23.43,28.09,171.65,1,
2251917244.24331,Ascent,0,0,0,28.37,0.16,0.18,69.49,7.6,27.62,171.66,1,
2251917244.32331,Ascent,0,0,0,32.11,0.16,0.18,90.53,19.91,27.14,171.72,1,
2251917244.38331,Ascent,0,0,0,41.35,0.16,0.18,72.55,20.11,38.68,171.67,1,
2251917244.44331,Ascent,0,0,0,48.44,0.16,0.18,-137.02,52.7,61.91,171.62,1,
2251917244.50331,Ascent,0,0,0,175.49,0.16,0.18,-137.18,178.59,-175.72,161.27,1,
2251917244.56331,Ascent,0,0,0,175.6,0.16,0.18,-138.58,178.55,-175.78,144.1,1,
2251917244.62331,Ascent,0,0,0,175.83,0.16,0.18,-139.9,178.54,-176.09,126.48,1,
2251917244.68331,Ascent,0,0,0,176.14,0.16,0.18,-141.58,178.55,-176.41,113.34,1,
2251917244.74331,Ascent,0,0,1,176.49,0.16,0.18,-143.66,178.59,-176.77,105.6,1,
2251917244.80331,Ascent,0,0,1,176.86,0.16,0.18,-146.41,178.63,-177.15,100.56,1,
2251917244.88331,Ascent,0,0,1,177.22,0.16,0.18,-150.02,178.66,-177.54,97.29,1,
2251917244.94331,Ascent,0,0,1,177.58,0.16,0.18,-154.87,178.68,-177.92,94.95,1,
2251917245.00331,Ascent,0,0,1,178,0.16,0.18,-161.16,178.7,-178.3,93.34,1,
2251917245.06331,Ascent,0,0,1,178.28,0.16,0.18,-169.21,178.72,-178.67,91.7,1,
2251917245.12331,Ascent,0,0,1,178.51,0.16,0.18,177,178.74,-179.01,90.76,1,
2251917245.18331,Ascent,0,0,1,178.68,0.16,0.18,164.7,178.76,-179.44,89.96,1,
2251917245.24331,Ascent,0,0,1,178.78,0.16,0.18,151.73,178.78,-179.73,89.31,1,
2251917245.30331,Ascent,0,0,2,178.82,0.16,0.18,139.43,178.82,180,88.77,1,
2251917245.38331,Ascent,0,0,2,178.8,0.16,0.18,128.82,178.84,179.76,88.26,1,
2251917245.44331,Ascent,0,0,2,178.74,0.16,0.18,120.22,178.86,179.54,87.81,1,
2251917245.50331,Ascent,0,0,2,178.64,0.16,0.18,113.45,178.89,179.35,87.41,1,
2251917245.56331,Ascent,0,0,2,178.56,0.16,0.18,108.21,178.91,179.18,86.93,1,
2251917245.62331,Ascent,0,0,2,178.48,0.16,0.18,103.01,178.93,179.04,86.6,1,
2251917245.68331,Ascent,0,0,2,178.4,0.16,0.18,100.11,178.95,178.88,86.29,1,
2251917245.74331,Ascent,0,0,2,178.34,0.16,0.18,97.86,178.98,178.78,86,1,
2251917245.80331,Ascent,0,0,3,178.29,0.16,0.18,96.13,178.99,178.7,85.72,1,
2251917245.88331,Ascent,0,0,3,178.24,0.16,0.18,94.8,179.01,178.63,85.46,1,
2251917245.94331,Ascent,0,0,3,178.21,0.16,0.18,93.82,179.02,178.58,85.22,1,
2251917246.00331,Ascent,0,0,3,178.19,0.16,0.18,93.12,179.03,178.54,84.84,1,
2251917246.06331,Ascent,0,0,3,178.18,0.16,0.18,92.55,179.04,178.52,84.58,1,
2251917246.12331,Ascent,0,0,3,178.18,0.16,0.18,92.34,179.05,178.5,84.35,1,
2251917246.18331,Ascent,0,0,3,178.18,0.16,0.18,92.31,179.06,178.5,84.07,1,
2251917246.24331,Ascent,0,0,3,178.2,0.16,0.18,92.43,179.07,178.51,83.79,1,
2251917246.32331,Ascent,0,0,3,178.21,0.16,0.18,92.67,179.07,178.52,83.51,1,
2251917246.38331,Ascent,0,0,4,178.23,0.16,0.18,93.02,179.08,178.54,83.28,1,
2251917246.44331,Ascent,0,0,4,178.27,0.16,0.18,93.43,179.08,178.56,82.98,1,
2251917246.50331,Ascent,0,0,4,178.3,0.16,0.18,94.09,179.09,178.59,82.47,1,
2251917246.56331,Ascent,0,0,4,178.33,0.16,0.18,94.68,179.09,178.63,82.18,1,
2251917246.62331,Ascent,0,0,4,178.36,0.16,0.18,95.32,179.09,178.66,81.93,1,
2251917246.68331,Ascent,0,0,4,178.39,0.16,0.18,96.01,179.1,178.69,81.71,1,
2251917246.76331,Ascent,0,0,4,178.42,0.16,0.18,96.75,179.1,178.72,81.74,1,
2251917246.82331,Ascent,0,0,4,178.45,0.16,0.18,97.51,179.1,178.75,81.57,1,
2251917246.88331,Ascent,0,0,5,178.49,0.16,0.18,98.3,179.1,178.79,81.87,1,
2251917246.94331,Ascent,0,0,5,178.51,0.16,0.18,99.36,179.1,178.82,82.56,1,
2251917247.00331,Ascent,0,0,5,178.54,0.16,0.18,100.16,179.1,178.86,83.66,1,
2251917247.06331,Ascent,0,0,5,178.56,0.16,0.18,100.94,179.09,178.88,85.68,1,
2251917247.12331,Ascent,0,0,5,178.58,0.16,0.18,101.7,179.09,178.91,88.75,1,
2251917247.20331,Ascent,0,0,5,178.6,0.16,0.18,102.43,179.09,178.93,93.93,1,
2251917247.26331,Ascent,0,0,5,178.61,0.16,0.18,103.12,179.09,178.96,105.87,1,
2251917247.32331,Ascent,0,0,5,178.63,0.16,0.18,103.77,179.09,178.98,136.46,1,
2251917247.38331,Ascent,0,0,5,178.64,0.16,0.18,104.57,179.08,179,-164.74,1,
2251917247.44331,Ascent,0,0,6,178.66,0.16,0.18,105.12,179.08,179.02,-145.08,1,
2251917247.50331,Ascent,0,0,6,178.67,0.16,0.18,105.61,179.08,179.03,-136.68,1,
2251917247.56331,Ascent,0,0,6,178.67,0.16,0.18,106.05,179.08,179.05,-132.46,1,
2251917247.64331,Ascent,0,0,6,178.68,0.16,0.18,106.45,179.08,179.06,-130.54,1,
2251917247.70331,Ascent,0,0,6,178.69,0.16,0.18,106.82,179.07,179.07,-128.85,1,
2251917247.76331,Ascent,0,0,6,178.7,0.16,0.18,107.17,179.07,179.08,-128.14,1,
2251917247.82331,Ascent,0,0,6,178.7,0.16,0.18,107.56,179.07,179.09,-126.28,1,
2251917247.88331,Ascent,0,0,6,178.7,0.16,0.18,107.81,179.07,179.1,-124.96,1,
2251917247.94331,Ascent,0,0,7,178.7,0.16,0.18,108.01,179.07,179.1,-122.5,1,
2251917248.00331,Ascent,0,0,7,178.71,0.16,0.18,108.18,179.06,179.11,-119.56,1,
2251917248.08331,Ascent,0,0,7,178.71,0.16,0.18,108.32,179.06,179.11,-115.17,1,
2251917248.14331,Ascent,0,0,7,178.71,0.16,0.18,108.42,179.06,179.12,-109.46,1,
2251917248.20331,Ascent,0,0,7,178.71,0.16,0.18,108.5,179.06,179.12,-102.92,1,
2251917248.26331,Ascent,0,0,7,178.72,0.16,0.18,108.58,179.06,179.12,-92.8,1,
2251917248.32331,Ascent,0,0,7,178.72,0.16,0.18,108.62,179.06,179.12,-85.28,1,
2251917248.38331,Ascent,0,0,7,178.72,0.16,0.18,108.65,179.06,179.13,-78.67,1,
2251917248.44331,Ascent,0,0,8,178.72,0.16,0.18,108.68,179.07,179.13,-73.52,1,
2251917248.50331,Ascent,0,0,8,178.73,0.16,0.18,108.7,179.07,179.13,-69.64,1,
2251917248.58331,Ascent,0,0,8,178.73,0.16,0.18,108.73,179.07,179.13,-67.1,1,
2251917248.64331,Ascent,0,0,8,178.73,0.16,0.18,108.76,179.07,179.13,-65.5,1,
2251917248.70331,Ascent,0,0,8,178.74,0.16,0.18,108.8,179.07,179.14,-64.66,1,
2251917248.76331,Ascent,0,0,8,178.74,0.16,0.18,108.85,179.07,179.14,-64.46,1,
2251917248.82331,Ascent,0,0,8,178.75,0.16,0.19,108.89,179.08,179.14,-64.86,1,
2251917248.88331,Ascent,0,0,8,178.75,0.16,0.19,108.95,179.08,179.15,-65.48,1,
2251917248.94331,Ascent,0,0,9,178.75,0.16,0.19,109.01,179.08,179.15,-66.32,1,
2251917249.02331,Ascent,0,0,9,178.76,0.16,0.19,109.08,179.08,179.15,-67.42,1,
2251917249.08331,Ascent,0,0,9,178.76,0.16,0.19,109.15,179.09,179.16,-68.48,1,
2251917249.14331,Ascent,0,0,9,178.77,0.16,0.19,109.23,179.09,179.16,-70.02,1,
2251917249.20331,Ascent,0,0,9,178.77,0.16,0.19,109.33,179.09,179.17,-71.33,1,
2251917249.26331,Ascent,0,0,9,178.78,0.16,0.19,109.41,179.09,179.17,-72.64,1,
2251917249.32331,Ascent,0,0,9,178.78,0.16,0.19,109.49,179.09,179.17,-73.88,1,
2251917249.38331,Ascent,0,0,9,178.78,0.16,0.19,109.57,179.1,179.18,-75.06,1,
2251917249.46331,Ascent,0,0,10,178.79,0.16,0.19,109.64,179.1,179.18,-76.38,1,
2251917249.52331,Ascent,0,0,10,178.79,0.16,0.19,109.72,179.1,179.18,-77.65,1,
2251917249.58331,Ascent,0,0,10,178.79,0.16,0.19,109.8,179.1,179.19,-78.8,1,
2251917249.64331,Ascent,0,0,10,178.8,0.16,0.19,109.89,179.1,179.19,-80.37,1,
2251917249.70331,Ascent,0,0,10,178.8,0.16,0.19,109.97,179.1,179.19,-81.4,1,
2251917249.76331,Ascent,0,0,10,178.8,0.16,0.19,110.04,179.1,179.19,-82.48,1,
2251917249.82331,Ascent,0,0,10,178.8,0.16,0.19,110.12,179.1,179.2,-83.5,1,
2251917249.90331,Ascent,0,0,10,178.8,0.16,0.19,110.19,179.1,179.2,-84.52,1,
2251917249.96331,Ascent,0,0,11,178.81,0.16,0.19,110.27,179.1,179.2,-85.31,1,
2251917250.02331,Ascent,0,0,11,178.81,0.16,0.19,110.35,179.11,179.2,-86.13,1,
2251917250.08331,Ascent,0,0,11,178.81,0.16,0.19,110.45,179.11,179.2,-87.08,1,
2251917250.14331,Ascent,0,0,11,178.81,0.16,0.19,110.53,179.11,179.21,-87.63,1,
2251917250.20331,Ascent,0,0,11,178.81,0.16,0.19,110.61,179.11,179.21,-88.24,1,
2251917250.26331,Ascent,0,0,11,178.82,0.16,0.19,110.7,179.11,179.21,-88.77,1,
2251917250.34331,Ascent,0,0,11,178.82,0.16,0.19,110.79,179.11,179.21,-89.3,1,
2251917250.40331,Ascent,0,0,11,178.82,0.16,0.19,111.23,179.11,179.22,-89.6,1,
2251917250.46331,Ascent,0,0,12,178.82,0.16,0.19,112.27,179.1,179.23,-86.39,1,
2251917250.52331,Ascent,0,0,12,178.82,0.16,0.19,114.51,179.08,179.25,-75.6,1,
2251917250.58331,Ascent,0,0,12,178.83,0.16,0.19,116.39,179.06,179.29,-63.22,1,
2251917250.64331,Ascent,0,0,12,178.83,0.16,0.19,118.2,179.04,179.33,-40.12,1,
2251917250.70331,Ascent,0,0,12,178.83,0.16,0.19,119.86,179.01,179.37,-7.1,1,
2251917250.78331,Ascent,0,0,12,178.84,0.16,0.2,121.31,178.99,179.41,17.56,1,
2251917250.84331,Ascent,0,0,12,178.84,0.16,0.2,122.52,178.98,179.44,31.48,1,
2251917250.90331,Ascent,0,0,12,178.84,0.16,0.2,123.46,178.96,179.47,39.14,1,
2251917250.96331,Ascent,0,0,13,178.85,0.16,0.2,124.28,178.95,179.5,45.33,1,
2251917251.02331,Ascent,0,0,13,178.85,0.16,0.2,124.57,178.94,179.52,48.43,1,
2251917251.08331,Ascent,0,0,13,178.85,0.16,0.2,124.58,178.93,179.54,50.66,1,
2251917251.14331,Ascent,0,0,13,178.86,0.16,0.2,124.34,178.93,179.56,52.4,1,
2251917251.22331,Ascent,0,0,13,178.86,0.16,0.2,123.87,178.93,179.57,53.82,1,
2251917251.28331,Ascent,0,0,13,178.86,0.16,0.2,123.18,178.93,179.57,55.09,1,
2251917251.34331,Ascent,0,0,13,178.87,0.16,0.2,122.31,178.93,179.57,56.16,1,
2251917251.40331,Ascent,0,0,14,178.87,0.16,0.2,120.92,178.94,179.57,57.45,1,
2251917251.46331,Ascent,0,0,14,178.87,0.16,0.2,119.73,178.94,179.57,58.36,1,
2251917251.52331,Ascent,0,0,14,178.87,0.16,0.2,118.45,178.95,179.56,59.21,1,
2251917251.58331,Ascent,0,0,14,178.87,0.16,0.2,117.12,178.96,179.55,60.04,1,
2251917251.64331,Ascent,0,0,14,178.87,0.16,0.2,115.75,178.97,179.54,60.84,1,
2251917251.72331,Ascent,0,0,14,178.87,0.16,0.2,114.39,178.98,179.52,61.61,1,
2251917251.78331,Ascent,0,0,14,178.87,0.16,0.2,113.03,178.98,179.51,62.41,1,
2251917251.84331,Ascent,0,0,14,178.86,0.16,0.2,111.72,178.99,179.5,63.47,1,
2251917251.90331,Ascent,0,0,15,178.86,0.16,0.2,110.07,179,179.48,64.27,1,
2251917251.96331,Ascent,0,0,15,178.86,0.16,0.2,108.93,179,179.47,65.09,1,
2251917252.02331,Ascent,0,0,15,178.85,0.16,0.21,107.88,179.01,179.45,65.9,1,
2251917252.08331,Ascent,0,0,15,178.85,0.16,0.21,106.92,179.01,179.44,66.74,1,
2251917252.16331,Ascent,0,0,15,178.84,0.16,0.21,106.08,179.01,179.43,67.57,1,
2251917252.22331,Ascent,0,0,15,178.84,0.16,0.21,105.36,179.01,179.42,68.41,1,
2251917252.28331,Ascent,0,0,15,178.83,0.16,0.21,104.74,179.01,179.42,69.56,1,
2251917252.34331,Ascent,0,0,15,178.83,0.16,0.21,104.09,179.01,179.41,70.44,1,
2251917252.40331,Ascent,0,0,16,178.82,0.16,0.21,103.73,179.01,179.41,71.32,1,
2251917252.46331,Ascent,0,0,16,178.82,0.16,0.21,103.36,179.01,179.41,72.2,1,
2251917252.52331,Ascent,0,0,16,178.82,0.16,0.21,102.28,179,179.4,73.1,1,
2251917252.60331,Ascent,0,0,16,178.82,0.16,0.21,100.6,179.01,179.39,74.23,1,
2251917252.66331,Ascent,0,0,16,178.81,0.16,0.21,99.12,179.02,179.36,75.73,1,
2251917252.72331,Ascent,0,0,16,178.81,0.16,0.21,98.09,179.03,179.34,78.62,1,
2251917252.78331,Ascent,0,0,16,178.81,0.16,0.21,96.93,179.04,179.32,85.2,1,
2251917252.84331,Ascent,0,0,17,178.82,0.16,0.21,96.27,179.05,179.31,101.71,1,
2251917252.90331,Ascent,0,0,17,178.84,0.16,0.21,95.84,179.07,179.31,164.83,1,
2251917252.96331,Ascent,0,0,17,178.85,0.16,0.21,95.62,179.09,179.32,-145.8,1,
2251917253.04331,Ascent,0,0,17,178.87,0.16,0.22,95.62,179.1,179.32,-133.68,1,
2251917253.10331,Ascent,0,0,17,178.88,0.16,0.22,95.82,179.11,179.33,-129.86,1,
2251917253.16331,Ascent,0,0,17,178.9,0.16,0.22,96.26,179.12,179.34,-127.96,1,
2251917253.22331,Ascent,0,0,17,178.92,0.16,0.22,97.17,179.13,179.36,-127.02,1,
2251917253.28331,Ascent,0,0,17,178.93,0.16,0.22,98.07,179.13,179.38,-126.88,1,
2251917253.34331,Ascent,0,0,18,178.94,0.16,0.22,99.14,179.14,179.4,-126.98,1,
2251917253.40331,Ascent,0,0,18,178.95,0.16,0.22,100.35,179.13,179.42,-127.22,1,
2251917253.48331,Ascent,0,0,18,178.95,0.16,0.22,101.7,179.13,179.45,-127.51,1,
2251917253.54331,Ascent,0,0,18,178.95,0.16,0.22,103.15,179.12,179.47,-127.8,1,
2251917253.60331,Ascent,0,0,18,178.94,0.16,0.22,104.68,179.1,179.5,-128.04,1,
2251917253.66331,Ascent,0,0,18,178.93,0.16,0.22,106.74,179.08,179.52,-128.2,1,
2251917253.72331,Ascent,0,0,18,178.91,0.16,0.22,108.23,179.06,179.56,-128.18,1,
2251917253.78331,Ascent,0,0,18,178.89,0.16,0.22,109.63,179.04,179.59,-128.04,1,
2251917253.84331,Ascent,0,0,19,178.88,0.16,0.23,110.93,179,179.61,-127.77,1,
2251917253.92331,Ascent,0,0,19,178.86,0.16,0.23,112.11,178.98,179.64,-127.37,1,
2251917253.98331,Ascent,0,0,19,178.84,0.16,0.23,113.17,178.95,179.67,-126.86,1,
2251917254.0433,Ascent,0,0,19,178.82,0.16,0.23,114.11,178.93,179.7,-126.22,1,
2251917254.1033,Ascent,0,0,19,178.81,0.16,0.23,115.18,178.91,179.72,-125.22,1,
2251917254.1633,Ascent,0,0,19,178.8,0.16,0.23,115.85,178.89,179.75,-124.34,1,
2251917254.2233,Ascent,0,0,19,178.79,0.16,0.23,116.4,178.88,179.78,-123.34,1,
2251917254.2833,Ascent,0,0,20,178.79,0.16,0.23,116.85,178.86,179.8,-122.23,1,
2251917254.3633,Ascent,0,0,20,178.78,0.16,0.23,117.2,178.85,179.82,-120.98,1,
2251917254.4233,Ascent,0,0,20,178.78,0.16,0.23,117.44,178.84,179.84,-119.6,1,
2251917254.4833,Ascent,0,0,20,178.78,0.16,0.23,117.6,178.83,179.86,-118.02,1,
2251917254.5433,Ascent,0,0,20,178.78,0.16,0.23,117.67,178.82,179.87,-115.66,1,
2251917254.6033,Ascent,0,0,20,178.79,0.16,0.24,117.64,178.82,179.89,-113.61,1,
2251917254.6633,Ascent,0,0,20,178.79,0.16,0.24,117.53,178.82,179.9,-111.24,1,
2251917254.7233,Ascent,0,0,21,178.8,0.16,0.24,117.36,178.82,179.91,-108.55,1,
2251917254.7833,Ascent,0,0,21,178.81,0.16,0.24,117.14,178.82,179.92,-105.39,1,
2251917254.8633,Ascent,0,0,21,178.81,0.16,0.24,116.88,178.83,179.92,-101.73,1,
2251917254.9233,Ascent,0,0,21,178.83,0.16,0.24,116.58,178.83,179.93,-97.47,1,
2251917254.9833,Ascent,0,0,21,178.83,0.16,0.24,116.24,178.83,179.93,-90.67,1,
2251917255.0433,Ascent,0,0,21,178.84,0.16,0.24,115.76,178.84,179.93,-84.56,1,
2251917255.1033,Ascent,0,0,21,178.85,0.16,0.24,115.38,178.85,179.93,-77.68,1,
2251917255.1633,Ascent,0,0,22,178.86,0.16,0.24,114.99,178.85,179.93,-70.13,1,
2251917255.2233,Ascent,0,0,22,178.87,0.16,0.25,114.61,178.86,179.93,-62.11,1,
2251917255.3033,Ascent,0,0,22,178.88,0.16,0.25,114.22,178.87,179.93,-54.05,1,
2251917255.3633,Ascent,0,0,22,178.89,0.16,0.25,113.86,178.87,179.93,-46.24,1,
2251917255.4233,Ascent,0,0,22,178.9,0.16,0.25,113.5,178.88,179.93,-37.36,1,
2251917255.4833,Ascent,0,0,22,178.9,0.16,0.25,113.06,178.89,179.93,-31.99,1,
2251917255.5433,Ascent,0,0,22,178.91,0.16,0.25,112.76,178.89,179.93,-27.68,1,
2251917255.6033,Ascent,0,0,23,178.92,0.16,0.25,112.48,178.9,179.92,-24.31,1,
2251917255.6633,Ascent,0,0,23,178.92,0.16,0.25,112.23,178.91,179.92,-21.79,1,
2251917255.7433,Ascent,0,0,23,178.93,0.16,0.25,112.01,178.91,179.92,-20.25,1,
2251917255.8033,Ascent,0,0,23,178.93,0.16,0.25,111.81,178.92,179.92,-19.41,1,
2251917255.8633,Ascent,0,0,23,178.94,0.16,0.26,111.65,178.92,179.92,-19.23,1,
2251917255.9233,Ascent,0,0,23,178.94,0.16,0.26,111.46,178.93,179.92,-19.74,1,
2251917255.9833,Ascent,0,0,23,178.94,0.16,0.26,111.35,178.93,179.92,-20.72,1,
2251917256.0433,Ascent,0,0,24,178.95,0.16,0.26,111.26,178.93,179.92,-22.22,1,
2251917256.1033,Ascent,0,0,24,178.95,0.16,0.26,111.18,178.94,179.92,-24.11,1,
2251917256.1833,Ascent,0,0,24,178.95,0.16,0.26,111.13,178.94,179.92,-26.38,1,
2251917256.2433,Ascent,0,0,24,178.95,0.16,0.26,111.09,178.94,179.92,-28.8,1,
2251917256.3033,Ascent,0,0,24,178.96,0.16,0.26,111.06,178.95,179.92,-31.32,1,
2251917256.3633,Ascent,0,0,24,178.96,0.16,0.27,111.03,178.95,179.92,-35,1,
2251917256.4233,Ascent,0,0,24,178.96,0.16,0.27,111.03,178.95,179.92,-37.78,1,
2251917256.4833,Ascent,0,0,25,178.96,0.16,0.27,111.03,178.95,179.92,-40.38,1,
2251917256.5433,Ascent,0,0,25,178.96,0.16,0.27,111.04,178.96,179.92,-42.72,1,
2251917256.6233,Ascent,0,0,25,178.96,0.16,0.27,111.05,178.96,179.92,-44.73,1,
2251917256.6833,Ascent,0,0,25,178.96,0.16,0.27,111.07,178.96,179.92,-46.44,1,
2251917256.7433,Ascent,0,0,25,178.97,0.16,0.27,111.09,178.96,179.92,-47.42,1,
2251917256.8033,Ascent,0,0,25,178.97,0.16,0.27,111.11,178.96,179.93,-48.49,1,
2251917256.8633,Ascent,0,0,25,178.97,0.16,0.28,111.13,178.96,179.93,-48.48,1,
2251917256.9233,Ascent,0,0,26,178.97,0.16,0.28,111.14,178.97,179.93,-47.99,1,
2251917256.9833,Ascent,0,0,26,178.97,0.16,0.28,111.15,178.97,179.93,-46.82,1,
2251917257.0633,Ascent,0,0,26,178.97,0.16,0.28,111.16,178.97,179.93,-45.13,1,
2251917257.1233,Ascent,0,0,26,178.97,0.16,0.28,111.16,178.97,179.93,-42.88,1,
2251917257.1833,Ascent,0,0,26,178.98,0.16,0.28,111.16,178.97,179.93,-39.31,1,
2251917257.2433,Ascent,0,0,26,178.98,0.16,0.28,111.14,178.97,179.93,-33.74,1,
2251917257.3033,Ascent,0,0,27,178.98,0.16,0.28,111.12,178.97,179.93,-28.65,1,
2251917257.3633,Ascent,0,0,27,178.98,0.16,0.29,111.09,178.97,179.94,-22.99,1,
2251917257.4233,Ascent,0,0,27,178.98,0.16,0.29,111.05,178.98,179.94,-17.04,1,
2251917257.5033,Ascent,0,0,27,178.98,0.16,0.29,111,178.98,179.94,-11.81,1,
2251917257.5633,Ascent,0,0,27,178.98,0.16,0.29,110.95,178.98,179.94,-6.8,1,
2251917257.6233,Ascent,0,0,27,178.99,0.16,0.29,110.89,178.98,179.94,-2.54,1,
2251917257.6833,Ascent,0,0,27,178.99,0.16,0.29,110.81,178.98,179.94,1.93,1,
2251917257.7433,Ascent,0,0,28,178.99,0.16,0.29,110.74,178.98,179.94,5.01,1,
2251917257.8033,Ascent,0,0,28,178.99,0.16,0.3,110.67,178.99,179.93,7.48,1,
2251917257.8633,Ascent,0,0,28,179,0.16,0.3,110.59,178.99,179.93,9.54,1,
2251917257.9233,Ascent,0,0,28,179,0.16,0.3,110.52,178.99,179.93,11.4,1,
2251917258.0033,Ascent,0,0,28,179,0.16,0.3,110.44,178.99,179.93,12.8,1,
2251917258.0633,Ascent,0,0,28,179.01,0.16,0.3,110.37,179,179.93,14.08,1,
2251917258.1233,Ascent,0,0,28,179.01,0.16,0.3,110.3,179,179.93,15.41,1,
2251917258.1833,Ascent,0,0,29,179.01,0.16,0.31,110.2,179,179.93,16.31,1,
2251917258.2433,Ascent,0,0,29,179.01,0.16,0.31,110.14,179,179.93,17.03,1,
2251917258.3033,Ascent,0,0,29,179.02,0.16,0.31,110.07,179.01,179.93,17.83,1,
2251917258.3633,Ascent,0,0,29,179.02,0.16,0.31,110.02,179.01,179.93,18.6,1,
2251917258.4433,Ascent,0,0,29,179.02,0.16,0.31,109.97,179.01,179.93,19.36,1,
2251917258.5033,Ascent,0,1,29,179.02,0.16,0.31,109.93,179.02,179.92,20.04,1,
2251917258.5633,Ascent,0,1,30,179.03,0.16,0.31,109.88,179.02,179.92,21.24,1,
2251917258.6233,Ascent,0,1,30,179.03,0.16,0.32,109.83,179.02,179.92,22.21,1,
2251917258.6833,Ascent,0,1,30,179.03,0.16,0.32,109.8,179.02,179.92,23.36,1,
2251917258.7433,Ascent,0,1,30,179.03,0.16,0.32,109.76,179.03,179.92,24.57,1,
2251917258.8033,Ascent,0,1,30,179.03,0.16,0.32,109.73,179.03,179.92,26.02,1,
2251917258.8833,Ascent,0,1,30,179.04,0.16,0.32,109.7,179.03,179.92,28.04,1,
2251917258.9433,Ascent,0,1,30,179.04,0.16,0.32,109.68,179.03,179.92,30.16,1,
2251917259.0033,Ascent,0,1,31,179.04,0.16,0.33,109.65,179.04,179.92,32.2,1,
2251917259.0633,Ascent,0,1,31,179.04,0.16,0.33,109.6,179.04,179.92,35.72,1,
2251917259.1233,Ascent,0,1,31,179.04,0.16,0.33,109.57,179.04,179.92,38.67,1,
2251917259.1833,Ascent,0,1,31,179.04,0.16,0.33,109.54,179.04,179.92,41.38,1,
2251917259.2433,Ascent,0,1,31,179.04,0.16,0.33,109.5,179.04,179.92,44.65,1,
2251917259.3233,Ascent,0,1,31,179.05,0.16,0.33,109.47,179.05,179.92,47.87,1,
2251917259.3833,Ascent,0,1,32,179.05,0.16,0.34,109.43,179.05,179.92,51.07,1,
2251917259.4433,Ascent,0,1,32,179.05,0.16,0.34,109.4,179.05,179.92,54.21,1,
2251917259.5033,Ascent,0,1,32,179.05,0.16,0.34,109.34,179.05,179.91,58.45,1,
2251917259.5633,Ascent,0,1,32,179.05,0.16,0.34,109.31,179.05,179.91,61.01,1,
2251917259.6233,Ascent,0,1,32,179.05,0.16,0.34,109.27,179.05,179.91,63.63,1,
2251917259.6833,Ascent,0,1,32,179.05,0.16,0.34,109.24,179.06,179.91,65.75,1,
2251917259.7633,Ascent,0,1,33,179.05,0.16,0.35,109.21,179.06,179.91,67.91,1,
2251917259.8233,Ascent,0,1,33,179.06,0.16,0.35,109.18,179.06,179.91,69.65,1,
2251917259.8833,Ascent,0,1,33,179.06,0.16,0.35,109.15,179.06,179.91,71.5,1,
2251917259.9433,Ascent,0,1,33,179.06,0.16,0.35,109.11,179.06,179.91,73.1,1,
2251917260.0033,Ascent,0,1,33,179.06,0.16,0.35,109.08,179.06,179.91,74.42,1,
2251917260.0633,Ascent,0,1,33,179.06,0.16,0.36,109.05,179.06,179.91,75.29,1,
2251917260.1233,Ascent,0,1,33,179.06,0.16,0.36,109.02,179.07,179.91,75.97,1,
2251917260.2033,Ascent,0,1,34,179.06,0.16,0.36,109,179.07,179.91,76.44,1,
2251917260.2633,Ascent,0,1,34,179.07,0.16,0.36,108.97,179.07,179.91,77.03,1,
2251917260.3233,Ascent,0,1,34,179.07,0.16,0.36,108.94,179.07,179.91,77.46,1,
2251917260.3833,Ascent,0,1,34,179.07,0.16,0.36,108.88,179.07,179.9,77.78,1,
2251917260.4433,Ascent,0,1,34,179.07,0.16,0.37,108.85,179.07,179.9,77.86,1,
2251917260.5033,Ascent,0,1,34,179.07,0.16,0.37,108.81,179.08,179.9,77.93,1,
2251917260.5633,Ascent,0,1,35,179.07,0.16,0.37,108.76,179.08,179.9,78.07,1,
2251917260.6433,Ascent,0,1,35,179.07,0.16,0.37,108.72,179.08,179.9,77.91,1,
2251917260.7033,Ascent,0,1,35,179.08,0.16,0.37,108.68,179.08,179.9,78.07,1,
2251917260.7633,Ascent,0,1,35,179.08,0.16,0.38,108.63,179.08,179.9,78.17,1,
2251917260.8233,Ascent,0,1,35,179.08,0.16,0.38,108.58,179.08,179.9,77.85,1,
2251917260.8833,Ascent,0,1,35,179.08,0.16,0.38,108.53,179.08,179.9,78.07,1,
2251917260.9433,Ascent,0,1,36,179.08,0.16,0.38,108.49,179.09,179.9,77.8,1,
2251917261.0033,Ascent,0,1,36,179.08,0.16,0.38,108.46,179.09,179.9,77.66,1,
2251917261.0633,Ascent,0,1,36,179.08,0.16,0.39,108.42,179.09,179.89,77.58,1,
2251917261.1433,Ascent,0,1,36,179.09,0.16,0.39,108.39,179.09,179.89,78.05,1,
2251917261.2033,Ascent,0,1,36,179.09,0.16,0.39,108.37,179.09,179.89,77.8,1,
2251917261.2633,Ascent,0,1,36,179.09,0.16,0.39,108.34,179.09,179.89,78.09,1,
2251917261.3233,Ascent,0,1,37,179.09,0.16,0.4,108.31,179.1,179.89,78.25,1,
2251917261.3833,Ascent,0,1,37,179.09,0.16,0.4,108.29,179.1,179.89,78.38,1,
2251917261.4433,Ascent,0,1,37,179.09,0.16,0.4,108.27,179.1,179.89,78.46,1,
2251917261.5033,Ascent,0,1,37,179.09,0.16,0.4,108.25,179.1,179.89,78.89,1,
2251917261.5833,Ascent,0,1,37,179.1,0.16,0.4,108.22,179.1,179.89,79.38,1,
2251917261.6433,Ascent,1,1,37,179.1,0.16,0.41,108.2,179.1,179.89,79.86,1,
2251917261.7033,Ascent,1,1,37,179.1,0.16,0.41,108.18,179.1,179.89,80.51,1,
2251917261.7633,Ascent,1,1,38,179.1,0.16,0.41,108.14,179.11,179.89,81.18,1,
2251917261.8233,Ascent,1,1,38,179.1,0.16,0.41,108.12,179.11,179.89,81.07,1,
2251917261.8833,Ascent,1,1,38,179.1,0.16,0.41,108.09,179.11,179.89,81.64,1,
2251917261.9433,Ascent,1,1,38,179.1,0.16,0.42,108.07,179.11,179.88,82.57,1,
2251917262.0233,Ascent,1,1,38,179.1,0.16,0.42,108.04,179.11,179.88,82.85,1,
2251917262.0833,Ascent,1,1,38,179.11,0.16,0.42,108.02,179.11,179.88,83.7,1,
2251917262.1433,Ascent,1,1,39,179.11,0.16,0.42,108,179.11,179.88,84.15,1,
2251917262.2033,Ascent,1,1,39,179.11,0.16,0.43,107.97,179.12,179.88,85.22,1,
2251917262.2633,Ascent,1,1,39,179.11,0.16,0.43,107.95,179.12,179.88,86,1,
2251917262.3233,Ascent,1,1,39,179.11,0.16,0.43,107.93,179.12,179.88,86.17,1,
2251917262.3833,Ascent,1,1,39,179.11,0.16,0.43,107.91,179.12,179.88,87,1,
2251917262.4633,Ascent,1,1,39,179.11,0.16,0.43,107.89,179.12,179.88,87.25,1,
2251917262.5233,Ascent,1,1,40,179.11,0.16,0.44,107.87,179.12,179.88,87.59,1,
2251917262.5833,Ascent,1,1,40,179.12,0.16,0.44,107.85,179.12,179.88,88.06,1,
2251917262.6433,Ascent,1,1,40,179.12,0.16,0.44,107.81,179.13,179.88,88.22,1,
2251917262.7033,Ascent,1,1,40,179.12,0.16,0.44,107.79,179.13,179.88,89.45,1,
2251917262.7633,Ascent,1,1,40,179.12,0.16,0.45,107.76,179.13,179.88,89.54,1,
2251917262.8233,Ascent,1,1,40,179.12,0.17,0.45,107.74,179.13,179.88,89.22,1,
2251917262.9033,Ascent,1,1,41,179.12,0.17,0.45,107.71,179.13,179.88,89.99,1,
2251917262.9633,Ascent,1,1,41,179.12,0.17,0.45,107.68,179.13,179.88,89.9,1,
2251917263.0233,Ascent,1,1,41,179.13,0.17,0.46,107.66,179.13,179.88,89.84,1,
2251917263.0833,Ascent,1,1,41,179.13,0.17,0.46,107.62,179.14,179.87,90.73,1,
2251917263.1433,Ascent,1,1,41,179.13,0.17,0.46,107.6,179.14,179.87,90.62,1,
2251917263.2033,Ascent,1,1,41,179.13,0.17,0.46,107.57,179.14,179.87,90.59,1,
2251917263.2633,Ascent,1,1,42,179.13,0.17,0.47,107.55,179.14,179.87,91.17,1,
2251917263.3433,Ascent,1,1,42,179.13,0.17,0.47,107.53,179.14,179.87,90.84,1,
2251917263.4033,Ascent,1,1,42,179.13,0.17,0.47,107.51,179.14,179.87,91.3,1,
2251917263.4633,Ascent,1,1,42,179.13,0.17,0.47,107.49,179.14,179.87,91.77,1,
2251917263.5233,Ascent,1,1,42,179.13,0.17,0.48,107.46,179.14,179.87,91.74,1,
2251917263.5833,Ascent,1,1,42,179.14,0.17,0.48,107.44,179.15,179.87,91.01,1,
2251917263.6433,Ascent,1,1,43,179.14,0.17,0.48,107.42,179.15,179.87,91.53,1,
2251917263.7033,Ascent,1,1,43,179.14,0.17,0.48,107.39,179.15,179.87,91.38,1,
2251917263.7833,Ascent,1,1,43,179.14,0.17,0.49,107.37,179.15,179.87,91.44,1,
2251917263.8433,Ascent,1,1,43,179.14,0.17,0.49,107.34,179.15,179.87,91.1,1,
2251917263.9033,Ascent,1,1,43,179.14,0.17,0.49,107.32,179.15,179.87,91.32,1,
2251917263.9633,Ascent,1,1,43,179.14,0.17,0.49,107.28,179.15,179.87,91.12,1,
2251917264.0233,Ascent,1,1,44,179.14,0.17,0.5,107.26,179.16,179.87,91.19,1,
2251917264.0833,Ascent,1,1,44,179.15,0.17,0.5,107.23,179.16,179.87,90.71,1,
2251917264.1433,Ascent,1,1,44,179.15,0.17,0.5,107.21,179.16,179.87,91.15,1,
2251917264.2033,Ascent,1,1,44,179.15,0.17,0.5,107.19,179.16,179.87,91.04,1,
2251917264.2833,Ascent,1,1,44,179.15,0.17,0.51,107.17,179.16,179.87,91.19,1,
2251917264.3433,Ascent,1,1,45,179.15,0.17,0.51,107.16,179.16,179.86,91.91,1,
2251917264.4033,Ascent,1,1,45,179.15,0.17,0.51,107.14,179.16,179.86,91.55,1,
2251917264.4633,Ascent,1,1,45,179.15,0.17,0.51,107.11,179.16,179.86,92.58,1,
2251917264.52329,Ascent,1,1,45,179.15,0.17,0.52,107.09,179.17,179.86,92.17,1,
2251917264.58329,Ascent,1,1,45,179.16,0.17,0.52,107.07,179.17,179.86,92.71,1,
2251917264.64329,Ascent,1,1,45,179.16,0.17,0.52,107.05,179.17,179.86,93.02,1,
2251917264.72329,Ascent,1,1,46,179.16,0.17,0.52,107.03,179.17,179.86,93.55,1,
2251917264.78329,Ascent,1,1,46,179.16,0.17,0.53,107.01,179.17,179.86,93.81,1,
2251917264.84329,Ascent,1,1,46,179.16,0.17,0.53,106.99,179.17,179.86,94.18,1,
2251917264.90329,Ascent,1,1,46,179.16,0.17,0.53,106.95,179.17,179.86,94.31,1,
2251917264.96329,Ascent,1,1,46,179.16,0.17,0.54,106.93,179.17,179.86,94.25,1,
2251917265.02329,Ascent,1,1,46,179.16,0.17,0.54,106.91,179.18,179.86,95.02,1,
2251917265.08329,Ascent,1,1,47,179.16,0.17,0.54,106.89,179.18,179.86,95.71,1,
2251917265.16329,Ascent,1,1,47,179.17,0.17,0.54,106.87,179.18,179.86,96.37,1,
2251917265.22329,Ascent,1,1,47,179.17,0.17,0.55,106.86,179.18,179.86,94.89,1,
2251917265.28329,Ascent,1,1,47,179.17,0.17,0.55,106.84,179.18,179.86,96.47,1,
2251917265.34329,Ascent,1,1,47,179.17,0.17,0.55,106.81,179.18,179.86,95.77,1,
2251917265.40329,Ascent,1,1,47,179.17,0.17,0.56,106.79,179.18,179.86,96.69,1,
2251917265.46329,Ascent,1,1,48,179.17,0.17,0.56,106.78,179.18,179.86,95.98,1,
2251917265.52329,Ascent,1,1,48,179.17,0.17,0.56,106.76,179.19,179.86,96.29,1,
2251917265.60329,Ascent,1,1,48,179.17,0.17,0.56,106.74,179.19,179.86,95.78,1,
2251917265.66329,Ascent,1,1,48,179.17,0.17,0.57,106.73,179.19,179.86,96.41,1,
2251917265.72329,Ascent,1,1,48,179.18,0.17,0.57,106.71,179.19,179.86,96.74,1,
2251917265.78329,Ascent,1,1,49,179.18,0.17,0.57,106.67,179.19,179.86,95.65,1,
2251917265.84329,Ascent,1,1,49,179.18,0.17,0.58,106.65,179.19,179.85,95.67,1,
2251917265.90329,Ascent,1,1,49,179.18,0.17,0.58,106.63,179.19,179.85,95.81,1,
2251917265.96329,Ascent,1,1,49,179.18,0.17,0.58,106.6,179.19,179.85,95.03,1,
2251917266.04329,Ascent,1,1,49,179.18,0.17,0.58,106.58,179.2,179.85,95.01,1,
2251917266.10329,Ascent,1,1,49,179.18,0.17,0.59,106.56,179.2,179.85,95.3,1,
2251917266.16329,Ascent,1,1,50,179.18,0.17,0.59,106.54,179.2,179.85,95.73,1,
2251917266.22329,Ascent,1,1,50,179.18,0.17,0.59,106.51,179.2,179.85,95.48,1,
2251917266.28329,Ascent,1,1,50,179.19,0.17,0.6,106.49,179.2,179.85,96.06,1,
2251917266.34329,Ascent,1,1,50,179.19,0.17,0.6,106.47,179.2,179.85,96.69,1,
2251917266.40329,Ascent,1,1,50,179.19,0.17,0.6,105.86,179.2,179.85,98.35,1,
2251917266.48329,Ascent,1,1,51,179.19,0.17,0.61,104.53,179.2,179.83,-117.34,1,
2251917266.54329,Ascent,1,1,51,179.18,0.17,0.61,103.1,179.2,179.81,-87.66,1,
2251917266.60329,Ascent,1,1,51,179.18,0.17,0.61,101.77,179.21,179.78,-85.57,1,
2251917266.66329,Ascent,1,1,51,179.18,0.17,0.61,100.13,179.21,179.76,-89.89,1,
2251917266.72329,Ascent,1,1,51,179.18,0.17,0.62,99.03,179.21,179.72,-91.72,1,
2251917266.78329,Ascent,1,1,51,179.17,0.17,0.62,98.06,179.22,179.68,-93.25,1,
2251917266.84329,Ascent,1,1,52,179.17,0.17,0.62,97.2,179.22,179.65,-93.44,1,
2251917266.92329,Ascent,1,1,52,179.16,0.17,0.63,96.45,179.22,179.62,-93.27,1,
2251917266.98329,Ascent,1,1,52,179.16,0.17,0.63,95.82,179.22,179.59,-92.82,1,
2251917267.04329,Ascent,1,1,52,179.15,0.17,0.63,95.32,179.21,179.55,-92.81,1,
2251917267.10329,Ascent,1,1,52,179.15,0.17,0.64,94.86,179.21,179.52,-92.16,1,
2251917267.16329,Ascent,1,1,52,179.14,0.17,0.64,94.74,179.21,179.47,-91.8,1,
2251917267.22329,Ascent,1,1,53,179.14,0.17,0.64,94.76,179.2,179.44,-92.04,1,
2251917267.28329,Ascent,1,1,53,179.13,0.17,0.65,94.92,179.19,179.41,-91.37,1,
2251917267.34329,Ascent,1,1,53,179.12,0.17,0.65,95.19,179.18,179.38,-90.22,1,
2251917267.42329,Ascent,1,1,53,179.12,0.17,0.65,95.56,179.17,179.35,-88.98,1,
2251917267.48329,Ascent,1,1,53,179.12,0.17,0.66,96.03,179.15,179.33,-87.83,1,
2251917267.54329,Ascent,1,1,53,179.12,0.17,0.66,96.58,179.14,179.31,-86.39,1,
2251917267.60329,Ascent,1,1,54,179.12,0.17,0.66,97.45,179.12,179.29,-85.25,1,
2251917267.66329,Ascent,1,1,54,179.12,0.17,0.67,98.2,179.11,179.27,-84.12,1,
2251917267.72329,Ascent,1,1,54,179.12,0.17,0.67,99.05,179.08,179.25,-83,1,
2251917267.78329,Ascent,1,1,54,179.13,0.17,0.67,99.98,179.07,179.24,-81.93,1,
2251917267.86329,Ascent,1,1,54,179.13,0.17,0.68,101,179.05,179.24,-80.89,1,
2251917267.92329,Ascent,1,1,55,179.14,0.17,0.68,102.12,179.04,179.23,-79.85,1,
2251917267.98329,Ascent,1,1,55,179.15,0.17,0.68,103.32,179.03,179.23,-78.51,1,
2251917268.04329,Ascent,1,1,55,179.16,0.17,0.69,105.05,179.01,179.23,-77.53,1,
2251917268.10329,Ascent,1,1,55,179.16,0.17,0.69,106.45,179,179.24,-76.57,1,
2251917268.16329,Ascent,1,1,55,179.17,0.17,0.69,107.93,178.99,179.25,-75.66,1,
2251917268.22329,Ascent,1,1,55,179.18,0.17,0.7,109.48,178.98,179.27,-74.74,1,
2251917268.30329,Ascent,1,1,56,179.19,0.17,0.7,111.09,178.97,179.28,-73.84,1,
2251917268.36329,Ascent,1,1,56,179.2,0.17,0.7,112.76,178.97,179.3,-72.96,1,
2251917268.42329,Ascent,1,1,56,179.21,0.17,0.71,114.47,178.96,179.32,-72.09,1,
2251917268.48329,Ascent,1,1,56,179.22,0.17,0.71,116.8,178.96,179.34,-70.95,1,
2251917268.54329,Ascent,1,1,56,179.22,0.17,0.71,118.57,178.96,179.38,-70.1,1,
2251917268.60329,Ascent,1,1,57,179.23,0.17,0.72,120.34,178.95,179.41,-69.26,1,
2251917268.66329,Ascent,1,1,57,179.23,0.17,0.72,122.11,178.96,179.44,-68.43,1,
2251917268.74329,Ascent,1,1,57,179.24,0.17,0.72,123.85,178.96,179.47,-67.6,1,
2251917268.80329,Ascent,1,1,57,179.24,0.17,0.73,125.56,178.96,179.5,-66.78,1,
2251917268.86329,Ascent,1,1,57,179.25,0.17,0.73,127.22,178.97,179.54,-65.96,1,
2251917268.92329,Ascent,1,1,57,179.25,0.17,0.73,129.32,178.98,179.57,-64.89,1,
2251917268.98329,Ascent,1,1,58,179.25,0.17,0.74,130.82,178.98,179.62,-64.09,1,
2251917269.04329,Ascent,1,1,58,179.25,0.17,0.74,132.24,178.99,179.66,-63.29,1,
2251917269.10329,Ascent,1,1,58,179.25,0.17,0.74,133.57,179.01,179.69,-62.5,1,
2251917269.16329,Ascent,1,1,58,179.25,0.17,0.75,134.8,179.02,179.73,-61.72,1,
2251917269.24329,Ascent,1,1,58,179.25,0.17,0.75,135.93,179.03,179.76,-60.95,1,
2251917269.30329,Ascent,1,1,59,179.25,0.17,0.75,136.94,179.05,179.8,-60.21,1,
2251917269.36329,Ascent,1,1,59,179.26,0.17,0.76,137.81,179.07,179.83,-59.52,1,
2251917269.42329,Ascent,1,1,59,179.26,0.17,0.76,138.78,179.08,179.85,-58.74,1,
2251917269.48329,Ascent,1,1,59,179.27,0.17,0.77,139.36,179.1,179.88,-58.24,1,
2251917269.54329,Ascent,1,1,59,179.27,0.17,0.77,139.81,179.12,179.9,-57.83,1,
2251917269.60329,Ascent,1,1,60,179.28,0.17,0.77,140.13,179.15,179.91,-57.52,1,
2251917269.66329,Ascent,1,1,60,179.28,0.17,0.78,140.48,179.17,179.92,-57.32,1,
2251917269.74329,Ascent,1,1,60,179.29,0.17,0.78,140.86,179.18,179.94,-57.16,1,
2251917269.80329,Ascent,1,1,60,179.29,0.17,0.78,141.13,179.2,179.95,-57,1,
2251917269.86329,Ascent,1,1,60,179.29,0.17,0.79,141.27,179.21,179.96,-56.92,1,
2251917269.92329,Ascent,1,1,60,179.29,0.17,0.79,141.29,179.22,179.97,-56.64,1,
2251917269.98329,Ascent,1,1,61,179.29,0.17,0.8,141.24,179.23,179.97,-56.48,1,
2251917270.04329,Ascent,1,1,61,179.29,0.17,0.8,141.15,179.24,179.98,-56.33,1,
2251917270.10329,Ascent,1,1,61,179.28,0.17,0.8,141.03,179.24,179.98,-56.09,1,
2251917270.16329,Ascent,1,1,61,179.28,0.17,0.81,140.92,179.24,179.99,-55.7,1,
2251917270.24329,Ascent,1,1,61,179.27,0.17,0.81,140.83,179.24,179.99,-55.23,1,
2251917270.30329,Ascent,1,1,62,179.26,0.17,0.81,140.79,179.23,-180,-54.71,1,
2251917270.36329,Ascent,1,1,62,179.25,0.17,0.82,140.78,179.23,-179.99,-54.08,1,
2251917270.42329,Ascent,1,1,62,179.25,0.17,0.82,140.8,179.22,-179.98,-53.04,1,
2251917270.48329,Ascent,1,1,62,179.24,0.17,0.83,140.92,179.21,-179.97,-52.14,1,
2251917270.54329,Ascent,1,1,62,179.23,0.17,0.83,141.17,179.2,-179.96,-51.15,1,
2251917270.60329,Ascent,1,1,63,179.22,0.17,0.83,141.42,179.19,-179.95,-50.1,1,
2251917270.66329,Ascent,1,1,63,179.21,0.17,0.84,141.72,179.18,-179.93,-48.97,1,
2251917270.74329,Ascent,1,1,63,179.2,0.17,0.84,142.08,179.17,-179.92,-47.73,1,
2251917270.80329,Ascent,1,1,63,179.19,0.17,0.84,142.49,179.16,-179.9,-46.48,1,
2251917270.86329,Ascent,1,1,63,179.18,0.17,0.85,143.01,179.15,-179.89,-45.19,1,
2251917270.92329,Ascent,1,1,64,179.17,0.17,0.85,143.65,179.14,-179.87,-43.44,1,
2251917270.98329,Ascent,1,1,64,179.17,0.17,0.86,144.06,179.13,-179.85,-42.01,1,
2251917271.04329,Ascent,1,1,64,179.16,0.17,0.86,144.56,179.12,-179.83,-40.56,1,
2251917271.10329,Ascent,1,1,64,179.15,0.17,0.86,145.15,179.11,-179.81,-39.11,1,
2251917271.16329,Ascent,1,1,64,179.14,0.17,0.87,145.87,179.11,-179.79,-37.69,1,
2251917271.24329,Ascent,1,1,65,179.13,0.17,0.87,146.71,179.1,-179.77,-36.23,1,
2251917271.30329,Ascent,1,1,65,179.13,0.17,0.88,147.65,179.1,-179.75,-34.86,1,
2251917271.36329,Ascent,1,1,65,179.12,0.17,0.88,148.65,179.1,-179.73,-33.46,1,
2251917271.42329,Ascent,1,1,65,179.11,0.17,0.88,149.99,179.11,-179.71,-31.67,1,
2251917271.48329,Ascent,1,1,65,179.1,0.17,0.89,150.99,179.11,-179.69,-30.34,1,
2251917271.54329,Ascent,1,1,65,179.1,0.17,0.89,151.97,179.12,-179.67,-29.05,1,
2251917271.60329,Ascent,1,1,66,179.09,0.17,0.9,152.92,179.13,-179.65,-27.82,1,
2251917271.68329,Ascent,1,1,66,179.08,0.17,0.9,153.85,179.14,-179.63,-26.63,1,
2251917271.74329,Ascent,1,1,66,179.07,0.17,0.9,154.74,179.15,-179.61,-25.47,1,
2251917271.80329,Ascent,1,1,66,179.06,0.17,0.91,155.6,179.16,-179.59,-24.33,1,
2251917271.86329,Ascent,1,1,66,179.06,0.17,0.91,156.43,179.17,-179.58,-22.94,1,
2251917271.92329,Ascent,1,1,67,179.05,0.17,0.92,157.48,179.18,-179.57,-21.94,1,
2251917271.98329,Ascent,1,1,67,179.05,0.17,0.92,158.22,179.19,-179.55,-20.98,1,
2251917272.04329,Ascent,1,1,67,179.04,0.17,0.93,158.92,179.21,-179.54,-20.07,1,
2251917272.10329,Ascent,1,1,67,179.04,0.17,0.93,159.57,179.22,-179.53,-19.2,1,
2251917272.18329,Ascent,1,1,67,179.03,0.17,0.93,160.18,179.23,-179.52,-18.38,1,
2251917272.24329,Ascent,1,1,68,179.03,0.17,0.94,160.78,179.23,-179.51,-17.61,1,
2251917272.30329,Ascent,1,1,68,179.02,0.17,0.94,161.37,179.24,-179.51,-16.87,1,
2251917272.36329,Ascent,1,1,68,179.02,0.17,0.95,162.14,179.24,-179.5,-15.99,1,
2251917272.42329,Ascent,1,1,68,179.02,0.17,0.95,162.71,179.25,-179.5,-15.38,1,
2251917272.48329,Ascent,1,1,68,179.02,0.17,0.95,163.27,179.25,-179.5,-14.86,1,
2251917272.54329,Ascent,1,1,69,179.02,0.17,0.96,163.82,179.25,-179.5,-14.37,1,
2251917272.60329,Ascent,1,1,69,179.01,0.17,0.96,164.35,179.25,-179.5,-13.93,1,
2251917272.68329,Ascent,1,1,69,179.01,0.17,0.97,164.87,179.25,-179.5,-13.5,1,
2251917272.74329,Ascent,1,1,69,179,0.17,0.97,165.37,179.25,-179.5,-13.12,1,
2251917272.80329,Ascent,1,1,69,179,0.17,0.97,165.87,179.25,-179.51,-12.76,1,
2251917272.86329,Ascent,1,1,70,178.99,0.17,0.98,166.52,179.25,-179.51,-12.31,1,
2251917272.92329,Ascent,1,1,70,178.98,0.17,0.98,167,179.24,-179.51,-11.98,1,
2251917272.98329,Ascent,1,1,70,178.97,0.17,0.99,167.48,179.24,-179.51,-11.66,1,
2251917273.04329,Ascent,1,1,70,178.96,0.17,0.99,167.95,179.24,-179.51,-11.36,1,
2251917273.12329,Ascent,1,1,70,178.95,0.17,1,168.42,179.24,-179.5,-11.06,1,
2251917273.18329,Ascent,1,1,71,178.94,0.17,1,168.88,179.24,-179.5,-10.76,1,
2251917273.24329,Ascent,1,1,71,178.92,0.17,1.01,169.35,179.23,-179.5,-10.44,1,
2251917273.30329,Ascent,1,1,71,178.91,0.17,1.01,169.8,179.23,-179.5,-10.02,1,
2251917273.36329,Ascent,1,1,71,178.9,0.17,1.01,170.4,179.23,-179.49,-9.71,1,
2251917273.42329,Ascent,1,1,71,178.88,0.17,1.02,170.85,179.23,-179.49,-9.4,1,
2251917273.48329,Ascent,1,1,72,178.87,0.17,1.02,171.29,179.24,-179.48,-9.07,1,
2251917273.54329,Ascent,1,1,72,178.85,0.17,1.03,171.73,179.24,-179.48,-8.73,1,
2251917273.62329,Ascent,1,1,72,178.84,0.17,1.03,172.16,179.24,-179.47,-8.4,1,
2251917273.68329,Ascent,1,1,72,178.82,0.17,1.04,172.59,179.24,-179.47,-8.05,1,
2251917273.74329,Ascent,1,2,72,178.8,0.17,1.04,173.02,179.24,-179.46,-7.7,1,
2251917273.80329,Ascent,1,2,73,178.79,0.17,1.05,173.58,179.24,-179.45,-7.25,1,
2251917273.86329,Ascent,1,2,73,178.77,0.17,1.05,174,179.25,-179.45,-6.89,1,
2251917273.92329,Ascent,1,2,73,178.76,0.17,1.06,174.42,179.25,-179.44,-6.54,1,
2251917273.98329,Ascent,1,2,73,178.74,0.17,1.06,174.84,179.25,-179.43,-6.19,1,
2251917274.04329,Ascent,1,2,73,178.73,0.17,1.06,175.25,179.26,-179.43,-5.84,1,
2251917274.12329,Ascent,1,2,74,178.71,0.17,1.07,175.66,179.26,-179.42,-5.49,1,
2251917274.18329,Ascent,1,2,74,178.7,0.17,1.07,176.08,179.27,-179.41,-5.16,1,
2251917274.24329,Ascent,1,2,74,178.68,0.17,1.08,176.48,179.27,-179.41,-4.84,1,
2251917274.30329,Ascent,1,2,74,178.67,0.17,1.08,177.02,179.27,-179.4,-4.43,1,
2251917274.36329,Ascent,1,2,74,178.65,0.17,1.09,177.42,179.28,-179.4,-4.12,1,
2251917274.42329,Ascent,1,2,75,178.64,0.17,1.09,177.82,179.28,-179.39,-3.83,1,
2251917274.48329,Ascent,1,2,75,178.62,0.17,1.1,178.21,179.29,-179.39,-3.55,1,
2251917274.54329,Ascent,1,2,75,178.61,0.17,1.1,178.6,179.29,-179.38,-3.28,1,
2251917274.62329,Ascent,1,2,75,178.6,0.17,1.11,178.99,179.3,-179.38,-3.02,1,
2251917274.68329,Ascent,1,2,76,178.58,0.17,1.11,179.37,179.3,-179.38,-2.77,1,
2251917274.74329,Ascent,1,2,76,178.56,0.17,1.11,179.74,179.3,-179.37,-2.48,1,
2251917274.80329,Ascent,1,2,76,178.55,0.17,1.12,-179.77,179.31,-179.37,-2.27,1,
2251917274.86329,Ascent,1,2,76,178.53,0.17,1.12,-179.41,179.31,-179.37,-2.07,1,
2251917274.92329,Ascent,1,2,76,178.52,0.17,1.13,-179.06,179.31,-179.37,-1.88,1,
2251917274.98329,Ascent,1,2,77,178.51,0.17,1.13,-178.71,179.32,-179.37,-1.71,1,
2251917275.04328,Ascent,1,2,77,178.49,0.17,1.14,-178.37,179.32,-179.36,-1.54,1,
2251917275.12328,Ascent,1,2,77,178.48,0.17,1.14,-178.04,179.32,-179.36,-1.39,1,
2251917275.18328,Ascent,1,2,77,178.46,0.17,1.15,-177.71,179.33,-179.36,-1.24,1,
2251917275.24328,Ascent,1,2,77,178.44,0.17,1.15,-177.39,179.33,-179.36,-1.11,1,
2251917275.30328,Ascent,1,2,78,178.43,0.17,1.16,-177.08,179.33,-179.36,-0.95,1,
2251917275.36328,Ascent,1,2,78,178.41,0.17,1.16,-176.67,179.34,-179.36,-0.83,1,
2251917275.42328,Ascent,1,2,78,178.4,0.17,1.17,-176.38,179.34,-179.36,-0.73,1,
2251917275.48328,Ascent,1,2,78,178.38,0.17,1.17,-176.09,179.34,-179.36,-0.64,1,
2251917275.54328,Ascent,1,2,78,178.37,0.17,1.18,-175.81,179.35,-179.36,-0.55,1,
2251917275.60328,Ascent,1,2,79,178.35,0.17,1.18,-175.53,179.35,-179.36,-0.46,1,
2251917275.68328,Ascent,1,2,79,178.33,0.17,1.19,-175.26,179.35,-179.36,-0.38,1,
2251917275.74328,Ascent,1,2,79,178.32,0.17,1.19,-174.99,179.35,-179.36,-0.3,1,
2251917275.80328,Ascent,1,2,79,178.3,0.17,1.2,-174.74,179.36,-179.36,-0.23,1,
2251917275.86328,Ascent,1,2,79,178.28,0.17,1.2,-174.48,179.36,-179.36,-0.13,1,
2251917275.92328,Ascent,1,2,80,178.26,0.17,1.21,-174.15,179.36,-179.36,-0.07,1,
2251917275.98328,Ascent,1,2,80,178.25,0.17,1.21,-173.9,179.37,-179.36,0,1,
2251917276.04328,Ascent,1,2,80,178.23,0.18,1.22,-173.67,179.37,-179.36,0.05,1,
2251917276.10328,Ascent,1,3,80,178.21,0.18,1.22,-173.43,179.37,-179.36,0.1,1,
2251917276.16328,Ascent,1,3,81,178.2,0.18,1.23,-173.2,179.38,-179.36,0.16,1,
2251917276.24328,Ascent,1,3,81,178.18,0.18,1.23,-172.98,179.38,-179.36,0.21,1,
2251917276.30328,Ascent,1,3,81,178.16,0.18,1.24,-172.76,179.38,-179.36,0.26,1,
2251917276.36328,Ascent,1,3,81,178.14,0.18,1.24,-172.54,179.39,-179.36,0.3,1,
2251917276.42328,Ascent,1,3,81,178.12,0.18,1.25,-172.33,179.39,-179.36,0.36,1,
2251917276.48328,Ascent,1,3,82,178.11,0.18,1.25,-172.05,179.39,-179.36,0.41,1,
2251917276.54328,Ascent,1,3,82,178.09,0.18,1.26,-171.84,179.39,-179.36,0.46,1,
2251917276.60328,Ascent,1,3,82,178.07,0.18,1.26,-171.64,179.4,-179.36,0.5,1,
2251917276.66328,Ascent,1,3,82,178.06,0.18,1.27,-171.43,179.4,-179.36,0.54,1,
2251917276.72328,Ascent,1,3,83,178.04,0.18,1.27,-171.23,179.4,-179.36,0.57,1,
2251917276.80328,Ascent,1,3,83,178.02,0.18,1.28,-171.04,179.41,-179.36,0.6,1,
2251917276.86328,Ascent,1,3,83,178,0.18,1.28,-170.84,179.41,-179.36,0.64,1,
2251917276.92328,Ascent,1,3,83,177.98,0.18,1.29,-170.66,179.41,-179.36,0.67,1,
2251917276.98328,Ascent,1,3,83,177.96,0.18,1.29,-170.47,179.42,-179.36,0.7,1,
2251917277.04328,Ascent,1,3,84,177.94,0.18,1.3,-170.22,179.42,-179.36,0.74,1,
2251917277.10328,Ascent,1,3,84,177.92,0.18,1.3,-170.03,179.42,-179.36,0.76,1,
2251917277.16328,Ascent,1,3,84,177.91,0.18,1.31,-169.85,179.43,-179.36,0.79,1,
2251917277.22328,Ascent,1,3,84,177.89,0.18,1.31,-169.68,179.43,-179.36,0.81,1,
2251917277.28328,Ascent,1,3,84,177.87,0.18,1.32,-169.51,179.44,-179.36,0.84,1,
2251917277.36328,Ascent,1,3,85,177.85,0.18,1.32,-169.34,179.44,-179.36,0.86,1,
2251917277.42328,Ascent,1,3,85,177.83,0.18,1.33,-169.17,179.45,-179.36,0.86,1,
2251917277.48328,Ascent,1,3,85,177.81,0.18,1.33,-169.01,179.45,-179.36,0.88,1,
2251917277.54328,Ascent,1,3,85,177.79,0.18,1.34,-168.85,179.46,-179.36,0.89,1,
2251917277.60328,Ascent,1,3,85,177.77,0.18,1.34,-168.64,179.46,-179.36,0.91,1,
2251917277.66328,Ascent,1,3,86,177.75,0.18,1.35,-168.49,179.46,-179.36,0.93,1,
2251917277.72328,Ascent,1,3,86,177.73,0.18,1.36,-168.34,179.47,-179.36,0.93,1,
2251917277.78328,Ascent,1,3,86,177.71,0.18,1.36,-168.19,179.48,-179.36,0.92,1,
2251917277.84328,Ascent,1,3,86,177.69,0.18,1.37,-168.05,179.48,-179.36,0.93,1,
2251917277.92328,Ascent,1,4,87,177.68,0.18,1.37,-167.91,179.48,-179.36,0.94,1,
2251917277.98328,Ascent,1,4,87,177.66,0.18,1.38,-167.77,179.49,-179.36,0.95,1,
2251917278.04328,Ascent,1,4,87,177.64,0.18,1.38,-167.64,179.49,-179.36,0.96,1,
2251917278.10328,Ascent,2,4,87,177.61,0.18,1.39,-167.51,179.5,-179.36,0.97,1,
2251917278.16328,Ascent,2,4,87,177.59,0.18,1.39,-167.33,179.5,-179.36,0.98,1,
2251917278.22328,Ascent,2,4,88,177.57,0.18,1.4,-167.2,179.51,-179.36,0.98,1,
2251917278.28328,Ascent,2,4,88,177.56,0.18,1.4,-167.07,179.51,-179.36,0.99,1,
2251917278.34328,Ascent,2,4,88,177.54,0.18,1.41,-166.95,179.52,-179.36,1,1,
2251917278.40328,Ascent,2,4,88,177.52,0.18,1.41,-166.82,179.52,-179.37,1,1,
2251917278.48328,Ascent,2,4,89,177.5,0.18,1.42,-166.7,179.53,-179.37,1.01,1,
2251917278.54328,Ascent,2,4,89,177.48,0.18,1.42,-166.58,179.53,-179.37,1.01,1,
2251917278.60328,Ascent,2,4,89,177.46,0.18,1.43,-166.47,179.53,-179.37,1.01,1,
2251917278.66328,Ascent,2,4,89,177.43,0.18,1.44,-166.36,179.54,-179.37,1.01,1,
2251917278.72328,Ascent,2,4,89,177.41,0.18,1.44,-166.2,179.54,-179.37,1.02,1,
2251917278.78328,Ascent,2,4,90,177.39,0.18,1.45,-166.09,179.55,-179.37,1.01,1,
2251917278.84328,Ascent,2,4,90,177.38,0.18,1.45,-165.98,179.55,-179.37,1.01,1,
2251917278.90328,Ascent,2,4,90,177.36,0.18,1.46,-165.88,179.56,-179.37,1.01,1,
2251917278.96328,Ascent,2,4,90,177.34,0.18,1.46,-165.77,179.56,-179.37,1.01,1,
2251917279.02328,Ascent,2,4,91,177.32,0.18,1.47,-165.67,179.57,-179.37,1.01,1,
2251917279.10328,Ascent,2,4,91,177.3,0.19,1.48,-165.57,179.57,-179.37,1.01,1,
2251917279.16328,Ascent,2,4,91,177.28,0.19,1.48,-165.48,179.58,-179.37,1.01,1,
2251917279.22328,Ascent,2,4,91,177.25,0.19,1.49,-165.38,179.58,-179.37,1.01,1,
2251917279.28328,Ascent,2,4,91,177.23,0.19,1.49,-165.25,179.59,-179.37,1,1,
2251917279.34328,Ascent,2,4,92,177.21,0.19,1.5,-165.16,179.59,-179.37,1,1,
2251917279.40328,Ascent,2,5,92,177.19,0.19,1.5,-165.06,179.6,-179.37,1,1,
2251917279.46328,Ascent,2,5,92,177.17,0.19,1.51,-164.97,179.6,-179.38,1,1,
2251917279.52328,Ascent,2,5,92,177.15,0.19,1.52,-164.89,179.61,-179.38,0.99,1,
2251917279.58328,Ascent,2,5,93,177.13,0.19,1.52,-164.8,179.62,-179.38,0.98,1,
2251917279.66328,Ascent,2,5,93,177.11,0.19,1.53,-164.72,179.62,-179.38,0.97,1,
2251917279.72328,Ascent,2,5,93,177.09,0.19,1.53,-164.63,179.63,-179.38,0.97,1,
2251917279.78328,Ascent,2,5,93,177.06,0.19,1.54,-164.56,179.63,-179.38,0.96,1,
2251917279.84328,Ascent,2,5,94,177.04,0.19,1.54,-164.45,179.64,-179.38,0.95,1,
2251917279.90328,Ascent,2,5,94,177.02,0.19,1.55,-164.37,179.64,-179.38,0.94,1,
2251917279.96328,Ascent,2,5,94,177,0.19,1.56,-164.3,179.65,-179.38,0.93,1,
2251917280.02328,Ascent,2,5,94,176.98,0.19,1.56,-164.22,179.65,-179.38,0.93,1,
2251917280.08328,Ascent,2,5,94,176.96,0.19,1.57,-164.15,179.66,-179.38,0.92,1,
2251917280.14328,Ascent,2,5,95,176.94,0.19,1.57,-164.08,179.66,-179.38,0.91,1,
2251917280.22328,Ascent,2,5,95,176.92,0.19,1.58,-164.01,179.67,-179.39,0.9,1,
2251917280.28328,Ascent,2,5,95,176.9,0.19,1.58,-163.94,179.67,-179.39,0.9,1,
2251917280.34328,Ascent,2,5,95,176.87,0.19,1.59,-163.89,179.68,-179.39,0.89,1,
2251917280.40328,Ascent,2,5,96,176.85,0.19,1.6,-163.82,179.69,-179.39,0.88,1,
2251917280.46328,Ascent,2,5,96,176.83,0.19,1.6,-163.73,179.69,-179.39,0.86,1,
2251917280.52328,Ascent,2,5,96,176.81,0.19,1.61,-163.67,179.7,-179.39,0.86,1,
2251917280.58328,Ascent,2,5,96,176.79,0.19,1.62,-163.61,179.7,-179.39,0.85,1,
2251917280.64328,Ascent,2,5,97,176.77,0.19,1.62,-163.55,179.71,-179.39,0.85,1,
2251917280.70328,Ascent,2,6,97,176.75,0.19,1.63,-163.49,179.72,-179.39,0.84,1,
2251917280.78328,Ascent,2,6,97,176.73,0.19,1.63,-163.44,179.72,-179.39,0.83,1,
2251917280.84328,Ascent,2,6,97,176.71,0.19,1.64,-163.38,179.73,-179.39,0.82,1,
2251917280.90328,Ascent,2,6,97,176.68,0.19,1.64,-163.34,179.73,-179.39,0.81,1,
2251917280.96328,Ascent,2,6,98,176.66,0.19,1.65,-163.29,179.74,-179.4,0.8,1,
2251917281.02328,Ascent,2,6,98,176.64,0.19,1.66,-163.21,179.75,-179.4,0.79,1,
2251917281.08328,Ascent,2,6,98,176.62,0.19,1.66,-163.16,179.75,-179.4,0.78,1,
2251917281.14328,Ascent,2,6,98,176.59,0.2,1.67,-163.11,179.76,-179.4,0.77,1,
2251917281.20328,Ascent,2,6,99,176.57,0.2,1.68,-163.07,179.76,-179.4,0.76,1,
2251917281.26328,Ascent,2,6,99,176.55,0.2,1.68,-163.02,179.77,-179.4,0.75,1,
2251917281.34328,Ascent,2,6,99,176.53,0.2,1.69,-162.98,179.78,-179.4,0.74,1,
